[
  {
    "stop_id": "1",
    "stop_code": "FRWO41",
    "stop_name": "Franowo",
    "stop_lat": "52.3814339100",
    "stop_lon": "17.0003228700",
    "zone_id": "A"
  },
  {
    "stop_id": "2",
    "stop_code": "SOB42",
    "stop_name": "Os. Sobieskiego",
    "stop_lat": "52.4638000300",
    "stop_lon": "16.9166601800",
    "zone_id": "A"
  },
  {
    "stop_id": "3",
    "stop_code": "SOB41",
    "stop_name": "Os. Sobieskiego",
    "stop_lat": "52.4639504200",
    "stop_lon": "16.9178214900",
    "zone_id": "A"
  },
  {
    "stop_id": "4",
    "stop_code": "MT72",
    "stop_name": "Most Teatralny",
    "stop_lat": "52.4107374400",
    "stop_lon": "16.9126471700",
    "zone_id": "A"
  },
  {
    "stop_id": "5",
    "stop_code": "MT44",
    "stop_name": "Most Teatralny",
    "stop_lat": "52.4109651200",
    "stop_lon": "16.9137425100",
    "zone_id": "A"
  },
  {
    "stop_id": "6",
    "stop_code": "MT73",
    "stop_name": "Most Teatralny",
    "stop_lat": "52.4103354900",
    "stop_lon": "16.9143484000",
    "zone_id": "A"
  },
  {
    "stop_id": "15",
    "stop_code": "SLKA42",
    "stop_name": "Słowiańska",
    "stop_lat": "52.4271177700",
    "stop_lon": "16.9192237100",
    "zone_id": "A"
  },
  {
    "stop_id": "16",
    "stop_code": "SLKA41",
    "stop_name": "Słowiańska",
    "stop_lat": "52.4271586000",
    "stop_lon": "16.9194629700",
    "zone_id": "A"
  },
  {
    "stop_id": "23",
    "stop_code": "ALSO42",
    "stop_name": "Aleje Solidarności",
    "stop_lat": "52.4359820600",
    "stop_lon": "16.9199740600",
    "zone_id": "A"
  },
  {
    "stop_id": "24",
    "stop_code": "ALSO41",
    "stop_name": "Aleje Solidarności",
    "stop_lat": "52.4359483100",
    "stop_lon": "16.9202087300",
    "zone_id": "A"
  },
  {
    "stop_id": "25",
    "stop_code": "LECH42",
    "stop_name": "Lechicka Poznań Plaza",
    "stop_lat": "52.4424734100",
    "stop_lon": "16.9198205300",
    "zone_id": "A"
  },
  {
    "stop_id": "26",
    "stop_code": "LECH41",
    "stop_name": "Lechicka Poznań Plaza",
    "stop_lat": "52.4425062700",
    "stop_lon": "16.9200857100",
    "zone_id": "A"
  },
  {
    "stop_id": "27",
    "stop_code": "KURP42",
    "stop_name": "Kurpińskiego",
    "stop_lat": "52.4507481400",
    "stop_lon": "16.9194124100",
    "zone_id": "A"
  },
  {
    "stop_id": "28",
    "stop_code": "KURP41",
    "stop_name": "Kurpińskiego",
    "stop_lat": "52.4507725100",
    "stop_lon": "16.9196313300",
    "zone_id": "A"
  },
  {
    "stop_id": "29",
    "stop_code": "SZYM42",
    "stop_name": "Szymanowskiego",
    "stop_lat": "52.4603710300",
    "stop_lon": "16.9169382500",
    "zone_id": "A"
  },
  {
    "stop_id": "30",
    "stop_code": "SZYM41",
    "stop_name": "Szymanowskiego",
    "stop_lat": "52.4603958500",
    "stop_lon": "16.9171552600",
    "zone_id": "A"
  },
  {
    "stop_id": "35",
    "stop_code": "ZNIW42",
    "stop_name": "Żniwna",
    "stop_lat": "52.4247660000",
    "stop_lon": "16.9268332600",
    "zone_id": "A"
  },
  {
    "stop_id": "36",
    "stop_code": "ZNIW71",
    "stop_name": "Żniwna",
    "stop_lat": "52.4243429100",
    "stop_lon": "16.9263538700",
    "zone_id": "A"
  },
  {
    "stop_id": "37",
    "stop_code": "PASI41",
    "stop_name": "Pasieka",
    "stop_lat": "52.4261525300",
    "stop_lon": "16.9311888200",
    "zone_id": "A"
  },
  {
    "stop_id": "38",
    "stop_code": "PASI42",
    "stop_name": "Pasieka",
    "stop_lat": "52.4263859700",
    "stop_lon": "16.9318731300",
    "zone_id": "A"
  },
  {
    "stop_id": "58",
    "stop_code": "OGDY41",
    "stop_name": "Ogrody",
    "stop_lat": "52.4170536400",
    "stop_lon": "16.8824626700",
    "zone_id": "A"
  },
  {
    "stop_id": "59",
    "stop_code": "OGDY42",
    "stop_name": "Ogrody",
    "stop_lat": "52.4163628200",
    "stop_lon": "16.8829024900",
    "zone_id": "A"
  },
  {
    "stop_id": "60",
    "stop_code": "ZERO72",
    "stop_name": "Żeromskiego",
    "stop_lat": "52.4155430100",
    "stop_lon": "16.8908253300",
    "zone_id": "A"
  },
  {
    "stop_id": "61",
    "stop_code": "ZERO71",
    "stop_name": "Żeromskiego",
    "stop_lat": "52.4157411000",
    "stop_lon": "16.8903614400",
    "zone_id": "A"
  },
  {
    "stop_id": "62",
    "stop_code": "PONA72",
    "stop_name": "Polna",
    "stop_lat": "52.4142414300",
    "stop_lon": "16.8966975400",
    "zone_id": "A"
  },
  {
    "stop_id": "63",
    "stop_code": "PONA71",
    "stop_name": "Polna",
    "stop_lat": "52.4142148300",
    "stop_lon": "16.8972021400",
    "zone_id": "A"
  },
  {
    "stop_id": "64",
    "stop_code": "RJEZ74",
    "stop_name": "Rynek Jeżycki",
    "stop_lat": "52.4122250800",
    "stop_lon": "16.9056406100",
    "zone_id": "A"
  },
  {
    "stop_id": "65",
    "stop_code": "RJEZ73",
    "stop_name": "Rynek Jeżycki",
    "stop_lat": "52.4125350800",
    "stop_lon": "16.9047706000",
    "zone_id": "A"
  },
  {
    "stop_id": "66",
    "stop_code": "BUKO42",
    "stop_name": "Bukowska",
    "stop_lat": "52.4100013000",
    "stop_lon": "16.8886379300",
    "zone_id": "A"
  },
  {
    "stop_id": "67",
    "stop_code": "BUKO41",
    "stop_name": "Bukowska",
    "stop_lat": "52.4100521300",
    "stop_lon": "16.8888257200",
    "zone_id": "A"
  },
  {
    "stop_id": "68",
    "stop_code": "RONJ42",
    "stop_name": "Rondo Nowaka-Jeziorańskiego",
    "stop_lat": "52.4027709300",
    "stop_lon": "16.8900297700",
    "zone_id": "A"
  },
  {
    "stop_id": "69",
    "stop_code": "RONJ73",
    "stop_name": "Rondo Nowaka-Jeziorańskiego",
    "stop_lat": "52.4033902600",
    "stop_lon": "16.8889925700",
    "zone_id": "A"
  },
  {
    "stop_id": "70",
    "stop_code": "RONJ41",
    "stop_name": "Rondo Nowaka-Jeziorańskiego",
    "stop_lat": "52.4023512573",
    "stop_lon": "16.8882176253",
    "zone_id": "A"
  },
  {
    "stop_id": "71",
    "stop_code": "RONJ74",
    "stop_name": "Rondo Nowaka-Jeziorańskiego",
    "stop_lat": "52.4018848800",
    "stop_lon": "16.8891387700",
    "zone_id": "A"
  },
  {
    "stop_id": "72",
    "stop_code": "WOJS41",
    "stop_name": "Wojskowa",
    "stop_lat": "52.4034107400",
    "stop_lon": "16.8924793200",
    "zone_id": "A"
  },
  {
    "stop_id": "73",
    "stop_code": "OSTR42",
    "stop_name": "Ostroroga",
    "stop_lat": "52.4003363100",
    "stop_lon": "16.8815419200",
    "zone_id": "A"
  },
  {
    "stop_id": "74",
    "stop_code": "OSTR41",
    "stop_name": "Ostroroga",
    "stop_lat": "52.4006241700",
    "stop_lon": "16.8823444000",
    "zone_id": "A"
  },
  {
    "stop_id": "75",
    "stop_code": "GROC41",
    "stop_name": "Grochowska",
    "stop_lat": "52.3989629500",
    "stop_lon": "16.8758472200",
    "zone_id": "A"
  },
  {
    "stop_id": "76",
    "stop_code": "GROC42",
    "stop_name": "Grochowska",
    "stop_lat": "52.3988983700",
    "stop_lon": "16.8760071400",
    "zone_id": "A"
  },
  {
    "stop_id": "77",
    "stop_code": "DRZE42",
    "stop_name": "Drzewieckiego",
    "stop_lat": "52.3965900200",
    "stop_lon": "16.8668666900",
    "zone_id": "A"
  },
  {
    "stop_id": "78",
    "stop_code": "DRZE41",
    "stop_name": "Drzewieckiego",
    "stop_lat": "52.3968382200",
    "stop_lon": "16.8675472100",
    "zone_id": "A"
  },
  {
    "stop_id": "79",
    "stop_code": "STMI42",
    "stop_name": "Stadion Miejski",
    "stop_lat": "52.3953542600",
    "stop_lon": "16.8623584000",
    "zone_id": "A"
  },
  {
    "stop_id": "80",
    "stop_code": "STMI41",
    "stop_name": "Stadion Miejski",
    "stop_lat": "52.3957224800",
    "stop_lon": "16.8632981200",
    "zone_id": "A"
  },
  {
    "stop_id": "81",
    "stop_code": "WEGO41",
    "stop_name": "Węgorka",
    "stop_lat": "52.3920000000",
    "stop_lon": "16.8578300000",
    "zone_id": "A"
  },
  {
    "stop_id": "82",
    "stop_code": "WEGO42",
    "stop_name": "Węgorka",
    "stop_lat": "52.3923300000",
    "stop_lon": "16.8580000000",
    "zone_id": "A"
  },
  {
    "stop_id": "83",
    "stop_code": "MATE71",
    "stop_name": "Matejki",
    "stop_lat": "52.4057875800",
    "stop_lon": "16.9009328700",
    "zone_id": "A"
  },
  {
    "stop_id": "84",
    "stop_code": "BALT71",
    "stop_name": "Bałtyk",
    "stop_lat": "52.4065890000",
    "stop_lon": "16.9110520000",
    "zone_id": "A"
  },
  {
    "stop_id": "85",
    "stop_code": "BALT42",
    "stop_name": "Bałtyk",
    "stop_lat": "52.4065000000",
    "stop_lon": "16.9110600000",
    "zone_id": "A"
  },
  {
    "stop_id": "86",
    "stop_code": "MODW71",
    "stop_name": "Most Dworcowy",
    "stop_lat": "52.4040015200",
    "stop_lon": "16.9110290500",
    "zone_id": "A"
  },
  {
    "stop_id": "87",
    "stop_code": "MODW72",
    "stop_name": "Most Dworcowy",
    "stop_lat": "52.4038694800",
    "stop_lon": "16.9111204500",
    "zone_id": "A"
  },
  {
    "stop_id": "88",
    "stop_code": "DWZA71",
    "stop_name": "Dworzec Zachodni",
    "stop_lat": "52.4017177600",
    "stop_lon": "16.9088064600",
    "zone_id": "A"
  },
  {
    "stop_id": "89",
    "stop_code": "DWZA72",
    "stop_name": "Dworzec Zachodni",
    "stop_lat": "52.4017716400",
    "stop_lon": "16.9090824300",
    "zone_id": "A"
  },
  {
    "stop_id": "90",
    "stop_code": "PAWI71",
    "stop_name": "Park Wilsona",
    "stop_lat": "52.3982419000",
    "stop_lon": "16.9031573100",
    "zone_id": "A"
  },
  {
    "stop_id": "91",
    "stop_code": "PAWI72",
    "stop_name": "Park Wilsona",
    "stop_lat": "52.3971074100",
    "stop_lon": "16.9020603600",
    "zone_id": "A"
  },
  {
    "stop_id": "92",
    "stop_code": "RYLA71",
    "stop_name": "Rynek Łazarski",
    "stop_lat": "52.3939634477",
    "stop_lon": "16.8985036470",
    "zone_id": "A"
  },
  {
    "stop_id": "93",
    "stop_code": "RYLA72",
    "stop_name": "Rynek Łazarski",
    "stop_lat": "52.3944540100",
    "stop_lon": "16.8991462700",
    "zone_id": "A"
  },
  {
    "stop_id": "94",
    "stop_code": "GLHE44",
    "stop_name": "Głogowska/Hetmańska",
    "stop_lat": "52.3897983100",
    "stop_lon": "16.8949471800",
    "zone_id": "A"
  },
  {
    "stop_id": "95",
    "stop_code": "GLHE43",
    "stop_name": "Głogowska/Hetmańska",
    "stop_lat": "52.3899860700",
    "stop_lon": "16.8946848200",
    "zone_id": "A"
  },
  {
    "stop_id": "96",
    "stop_code": "GLHE71",
    "stop_name": "Głogowska/Hetmańska",
    "stop_lat": "52.3905273700",
    "stop_lon": "16.8944754200",
    "zone_id": "A"
  },
  {
    "stop_id": "97",
    "stop_code": "GLHE45",
    "stop_name": "Głogowska/Hetmańska",
    "stop_lat": "52.3903874400",
    "stop_lon": "16.8935347900",
    "zone_id": "A"
  },
  {
    "stop_id": "98",
    "stop_code": "GLHE06",
    "stop_name": "Głogowska/Hetmańska",
    "stop_lat": "52.3902737400",
    "stop_lon": "16.8935651400",
    "zone_id": "A"
  },
  {
    "stop_id": "99",
    "stop_code": "ARCI42",
    "stop_name": "Arciszewskiego",
    "stop_lat": "52.3926985000",
    "stop_lon": "16.8869293500",
    "zone_id": "A"
  },
  {
    "stop_id": "100",
    "stop_code": "ARCI41",
    "stop_name": "Arciszewskiego",
    "stop_lat": "52.3928844400",
    "stop_lon": "16.8867070100",
    "zone_id": "A"
  },
  {
    "stop_id": "101",
    "stop_code": "AREN41",
    "stop_name": "Arena",
    "stop_lat": "52.3972781800",
    "stop_lon": "16.8883695100",
    "zone_id": "A"
  },
  {
    "stop_id": "102",
    "stop_code": "AREN42",
    "stop_name": "Arena",
    "stop_lat": "52.3977717600",
    "stop_lon": "16.8884247200",
    "zone_id": "A"
  },
  {
    "stop_id": "103",
    "stop_code": "KOLE42",
    "stop_name": "Kolejowa",
    "stop_lat": "52.3870352600",
    "stop_lon": "16.9028994200",
    "zone_id": "A"
  },
  {
    "stop_id": "104",
    "stop_code": "KOLE41",
    "stop_name": "Kolejowa",
    "stop_lat": "52.3871894000",
    "stop_lon": "16.9027620200",
    "zone_id": "A"
  },
  {
    "stop_id": "105",
    "stop_code": "TRAU44",
    "stop_name": "Traugutta",
    "stop_lat": "52.3853237900",
    "stop_lon": "16.9138239700",
    "zone_id": "A"
  },
  {
    "stop_id": "106",
    "stop_code": "TRAU43",
    "stop_name": "Traugutta",
    "stop_lat": "52.3847652100",
    "stop_lon": "16.9151159000",
    "zone_id": "A"
  },
  {
    "stop_id": "107",
    "stop_code": "KOSI71",
    "stop_name": "Kosińskiego",
    "stop_lat": "52.3893013500",
    "stop_lon": "16.9182392900",
    "zone_id": "A"
  },
  {
    "stop_id": "108",
    "stop_code": "KOSI72",
    "stop_name": "Kosińskiego",
    "stop_lat": "52.3894819500",
    "stop_lon": "16.9187176400",
    "zone_id": "A"
  },
  {
    "stop_id": "109",
    "stop_code": "ROZA42",
    "stop_name": "Różana",
    "stop_lat": "52.3969310600",
    "stop_lon": "16.9249166900",
    "zone_id": "A"
  },
  {
    "stop_id": "110",
    "stop_code": "ROZA41",
    "stop_name": "Różana",
    "stop_lat": "52.3965092000",
    "stop_lon": "16.9245683000",
    "zone_id": "A"
  },
  {
    "stop_id": "111",
    "stop_code": "SWCZ72",
    "stop_name": "Św. Czesława",
    "stop_lat": "52.3975813800",
    "stop_lon": "16.9213722500",
    "zone_id": "A"
  },
  {
    "stop_id": "112",
    "stop_code": "SWCZ71",
    "stop_name": "Św. Czesława",
    "stop_lat": "52.3965130000",
    "stop_lon": "16.9212750700",
    "zone_id": "A"
  },
  {
    "stop_id": "113",
    "stop_code": "POLW42",
    "stop_name": "Półwiejska",
    "stop_lat": "52.3999200000",
    "stop_lon": "16.9281600000",
    "zone_id": "A"
  },
  {
    "stop_id": "114",
    "stop_code": "POLW41",
    "stop_name": "Półwiejska",
    "stop_lat": "52.3999700000",
    "stop_lon": "16.9279200000",
    "zone_id": "A"
  },
  {
    "stop_id": "115",
    "stop_code": "WIER42",
    "stop_name": "Wierzbięcice",
    "stop_lat": "52.4017301500",
    "stop_lon": "16.9209242000",
    "zone_id": "A"
  },
  {
    "stop_id": "116",
    "stop_code": "WIER41",
    "stop_name": "Wierzbięcice",
    "stop_lat": "52.4019271300",
    "stop_lon": "16.9205211600",
    "zone_id": "A"
  },
  {
    "stop_id": "117",
    "stop_code": "FRRY41",
    "stop_name": "Fredry",
    "stop_lat": "52.4093200000",
    "stop_lon": "16.9192700000",
    "zone_id": "A"
  },
  {
    "stop_id": "118",
    "stop_code": "FRRY42",
    "stop_name": "Fredry",
    "stop_lat": "52.4094800000",
    "stop_lon": "16.9184700000",
    "zone_id": "A"
  },
  {
    "stop_id": "119",
    "stop_code": "PLWO71",
    "stop_name": "Pl. Wolności",
    "stop_lat": "52.4079231500",
    "stop_lon": "16.9258694600",
    "zone_id": "A"
  },
  {
    "stop_id": "120",
    "stop_code": "MRCI71",
    "stop_name": "Marcinkowskiego",
    "stop_lat": "52.4064212100",
    "stop_lon": "16.9284599000",
    "zone_id": "A"
  },
  {
    "stop_id": "121",
    "stop_code": "MRCI72",
    "stop_name": "Marcinkowskiego",
    "stop_lat": "52.4073055900",
    "stop_lon": "16.9288885500",
    "zone_id": "A"
  },
  {
    "stop_id": "122",
    "stop_code": "WROC71",
    "stop_name": "Wrocławska",
    "stop_lat": "52.4055683200",
    "stop_lon": "16.9321353600",
    "zone_id": "A"
  },
  {
    "stop_id": "123",
    "stop_code": "WROC72",
    "stop_name": "Wrocławska",
    "stop_lat": "52.4056098100",
    "stop_lon": "16.9323084800",
    "zone_id": "A"
  },
  {
    "stop_id": "124",
    "stop_code": "PLRA42",
    "stop_name": "Pl. Ratajskiego",
    "stop_lat": "52.4095986000",
    "stop_lon": "16.9239237500",
    "zone_id": "A"
  },
  {
    "stop_id": "125",
    "stop_code": "PLRA41",
    "stop_name": "Pl. Ratajskiego",
    "stop_lat": "52.4095816900",
    "stop_lon": "16.9241997100",
    "zone_id": "A"
  },
  {
    "stop_id": "126",
    "stop_code": "PLWI42",
    "stop_name": "Pl. Wielkopolski",
    "stop_lat": "52.4103531800",
    "stop_lon": "16.9308266000",
    "zone_id": "A"
  },
  {
    "stop_id": "127",
    "stop_code": "PLWI41",
    "stop_name": "Pl. Wielkopolski",
    "stop_lat": "52.4103158800",
    "stop_lon": "16.9310187000",
    "zone_id": "A"
  },
  {
    "stop_id": "128",
    "stop_code": "MAGA41",
    "stop_name": "Małe Garbary",
    "stop_lat": "52.4107493300",
    "stop_lon": "16.9374709200",
    "zone_id": "A"
  },
  {
    "stop_id": "129",
    "stop_code": "MAGA42",
    "stop_name": "Małe Garbary",
    "stop_lat": "52.4108894900",
    "stop_lon": "16.9372306700",
    "zone_id": "A"
  },
  {
    "stop_id": "130",
    "stop_code": "KATE42",
    "stop_name": "Katedra",
    "stop_lat": "52.4100987400",
    "stop_lon": "16.9471314700",
    "zone_id": "A"
  },
  {
    "stop_id": "131",
    "stop_code": "KATE41",
    "stop_name": "Katedra",
    "stop_lat": "52.4100296800",
    "stop_lon": "16.9473154100",
    "zone_id": "A"
  },
  {
    "stop_id": "132",
    "stop_code": "ROSR41",
    "stop_name": "Rondo Śródka",
    "stop_lat": "52.4100886700",
    "stop_lon": "16.9557905900",
    "zone_id": "A"
  },
  {
    "stop_id": "133",
    "stop_code": "ROSR42",
    "stop_name": "Rondo Śródka",
    "stop_lat": "52.4102429400",
    "stop_lon": "16.9556183400",
    "zone_id": "A"
  },
  {
    "stop_id": "134",
    "stop_code": "ROSR43",
    "stop_name": "Rondo Śródka",
    "stop_lat": "52.4095338300",
    "stop_lon": "16.9562091400",
    "zone_id": "A"
  },
  {
    "stop_id": "135",
    "stop_code": "ROSR44",
    "stop_name": "Rondo Śródka",
    "stop_lat": "52.4095004300",
    "stop_lon": "16.9564208700",
    "zone_id": "A"
  },
  {
    "stop_id": "136",
    "stop_code": "ROSR45",
    "stop_name": "Rondo Śródka",
    "stop_lat": "52.4098738000",
    "stop_lon": "16.9577923900",
    "zone_id": "A"
  },
  {
    "stop_id": "137",
    "stop_code": "ROSR46",
    "stop_name": "Rondo Śródka",
    "stop_lat": "52.4099513800",
    "stop_lon": "16.9581012000",
    "zone_id": "A"
  },
  {
    "stop_id": "138",
    "stop_code": "ROSR47",
    "stop_name": "Rondo Śródka",
    "stop_lat": "52.4105194500",
    "stop_lon": "16.9573420600",
    "zone_id": "A"
  },
  {
    "stop_id": "139",
    "stop_code": "ZAWA42",
    "stop_name": "Zawady",
    "stop_lat": "52.4136466034",
    "stop_lon": "16.9581832333",
    "zone_id": "A"
  },
  {
    "stop_id": "140",
    "stop_code": "SWMI41",
    "stop_name": "Św. Michała",
    "stop_lat": "52.4090145800",
    "stop_lon": "16.9623295000",
    "zone_id": "A"
  },
  {
    "stop_id": "141",
    "stop_code": "SWMI42",
    "stop_name": "Św. Michała",
    "stop_lat": "52.4091737200",
    "stop_lon": "16.9619320100",
    "zone_id": "A"
  },
  {
    "stop_id": "142",
    "stop_code": "TERM42",
    "stop_name": "Termalna",
    "stop_lat": "52.4091574800",
    "stop_lon": "16.9721856000",
    "zone_id": "A"
  },
  {
    "stop_id": "143",
    "stop_code": "TERM41",
    "stop_name": "Termalna",
    "stop_lat": "52.4090358700",
    "stop_lon": "16.9722628600",
    "zone_id": "A"
  },
  {
    "stop_id": "144",
    "stop_code": "KRAN42",
    "stop_name": "Krańcowa",
    "stop_lat": "52.4094277500",
    "stop_lon": "16.9810464800",
    "zone_id": "A"
  },
  {
    "stop_id": "145",
    "stop_code": "KRAN41",
    "stop_name": "Krańcowa",
    "stop_lat": "52.4093202300",
    "stop_lon": "16.9812458100",
    "zone_id": "A"
  },
  {
    "stop_id": "146",
    "stop_code": "LOMZ42",
    "stop_name": "Łomżyńska",
    "stop_lat": "52.4096310300",
    "stop_lon": "16.9851960400",
    "zone_id": "A"
  },
  {
    "stop_id": "147",
    "stop_code": "LOMZ41",
    "stop_name": "Łomżyńska",
    "stop_lat": "52.4095056700",
    "stop_lon": "16.9853441700",
    "zone_id": "A"
  },
  {
    "stop_id": "150",
    "stop_code": "MILO42",
    "stop_name": "Miłostowo",
    "stop_lat": "52.4101993000",
    "stop_lon": "17.0025350800",
    "zone_id": "A"
  },
  {
    "stop_id": "151",
    "stop_code": "MILO41",
    "stop_name": "Miłostowo",
    "stop_lat": "52.4096098600",
    "stop_lon": "17.0029011200",
    "zone_id": "A"
  },
  {
    "stop_id": "152",
    "stop_code": "BAKA41",
    "stop_name": "Baraniaka",
    "stop_lat": "52.4039501500",
    "stop_lon": "16.9541778000",
    "zone_id": "A"
  },
  {
    "stop_id": "153",
    "stop_code": "BAKA42",
    "stop_name": "Baraniaka",
    "stop_lat": "52.4037693100",
    "stop_lon": "16.9543871300",
    "zone_id": "A"
  },
  {
    "stop_id": "154",
    "stop_code": "RRAT42",
    "stop_name": "Rondo Rataje",
    "stop_lat": "52.3959887100",
    "stop_lon": "16.9490736500",
    "zone_id": "A"
  },
  {
    "stop_id": "155",
    "stop_code": "RRAT43",
    "stop_name": "Rondo Rataje",
    "stop_lat": "52.3965069800",
    "stop_lon": "16.9507955500",
    "zone_id": "A"
  },
  {
    "stop_id": "156",
    "stop_code": "RRAT44",
    "stop_name": "Rondo Rataje",
    "stop_lat": "52.3948816400",
    "stop_lon": "16.9500063500",
    "zone_id": "A"
  },
  {
    "stop_id": "157",
    "stop_code": "RRAT41",
    "stop_name": "Rondo Rataje",
    "stop_lat": "52.3961740600",
    "stop_lon": "16.9488220600",
    "zone_id": "A"
  },
  {
    "stop_id": "158",
    "stop_code": "KORN41",
    "stop_name": "Kórnicka",
    "stop_lat": "52.3987998700",
    "stop_lon": "16.9520989000",
    "zone_id": "A"
  },
  {
    "stop_id": "159",
    "stop_code": "KORN42",
    "stop_name": "Kórnicka",
    "stop_lat": "52.3987724600",
    "stop_lon": "16.9522537500",
    "zone_id": "A"
  },
  {
    "stop_id": "160",
    "stop_code": "KORN43",
    "stop_name": "Kórnicka",
    "stop_lat": "52.3990164300",
    "stop_lon": "16.9534845600",
    "zone_id": "A"
  },
  {
    "stop_id": "161",
    "stop_code": "KORN44",
    "stop_name": "Kórnicka",
    "stop_lat": "52.3991553500",
    "stop_lon": "16.9533801200",
    "zone_id": "A"
  },
  {
    "stop_id": "162",
    "stop_code": "KORN45",
    "stop_name": "Kórnicka",
    "stop_lat": "52.3998253300",
    "stop_lon": "16.9528595100",
    "zone_id": "A"
  },
  {
    "stop_id": "163",
    "stop_code": "PP71",
    "stop_name": "Politechnika",
    "stop_lat": "52.4005864300",
    "stop_lon": "16.9487672600",
    "zone_id": "A"
  },
  {
    "stop_id": "164",
    "stop_code": "PP72",
    "stop_name": "Politechnika",
    "stop_lat": "52.4007011200",
    "stop_lon": "16.9487645300",
    "zone_id": "A"
  },
  {
    "stop_id": "165",
    "stop_code": "PLBE71",
    "stop_name": "Pl. Bernardyński",
    "stop_lat": "52.4043220400",
    "stop_lon": "16.9370106900",
    "zone_id": "A"
  },
  {
    "stop_id": "166",
    "stop_code": "PLBE72",
    "stop_name": "Pl. Bernardyński",
    "stop_lat": "52.4044339000",
    "stop_lon": "16.9367738700",
    "zone_id": "A"
  },
  {
    "stop_id": "167",
    "stop_code": "PLWL41",
    "stop_name": "Pl. Wiosny Ludów",
    "stop_lat": "52.4050400000",
    "stop_lon": "16.9317400000",
    "zone_id": "A"
  },
  {
    "stop_id": "168",
    "stop_code": "PLWL42",
    "stop_name": "Pl. Wiosny Ludów",
    "stop_lat": "52.4051500000",
    "stop_lon": "16.9314500000",
    "zone_id": "A"
  },
  {
    "stop_id": "169",
    "stop_code": "LAKO41",
    "stop_name": "Łąkowa",
    "stop_lat": "52.4019500000",
    "stop_lon": "16.9342500000",
    "zone_id": "A"
  },
  {
    "stop_id": "170",
    "stop_code": "LAKO42",
    "stop_name": "Łąkowa",
    "stop_lat": "52.4020600000",
    "stop_lon": "16.9342900000",
    "zone_id": "A"
  },
  {
    "stop_id": "171",
    "stop_code": "AWF42",
    "stop_name": "AWF",
    "stop_lat": "52.3998200000",
    "stop_lon": "16.9355700000",
    "zone_id": "A"
  },
  {
    "stop_id": "172",
    "stop_code": "AWF41",
    "stop_name": "AWF",
    "stop_lat": "52.3992400000",
    "stop_lon": "16.9343000000",
    "zone_id": "A"
  },
  {
    "stop_id": "173",
    "stop_code": "AWF73",
    "stop_name": "AWF",
    "stop_lat": "52.3990100000",
    "stop_lon": "16.9360200000",
    "zone_id": "A"
  },
  {
    "stop_id": "174",
    "stop_code": "GWAR71",
    "stop_name": "Gwarna",
    "stop_lat": "52.4073590000",
    "stop_lon": "16.9211080000",
    "zone_id": "A"
  },
  {
    "stop_id": "175",
    "stop_code": "SERA42",
    "stop_name": "Serafitek",
    "stop_lat": "52.3969309500",
    "stop_lon": "16.9457055500",
    "zone_id": "A"
  },
  {
    "stop_id": "176",
    "stop_code": "SERA41",
    "stop_name": "Serafitek",
    "stop_lat": "52.3971256800",
    "stop_lon": "16.9445062800",
    "zone_id": "A"
  },
  {
    "stop_id": "177",
    "stop_code": "WIOS41",
    "stop_name": "Wioślarska",
    "stop_lat": "52.3930049600",
    "stop_lon": "16.9486688200",
    "zone_id": "A"
  },
  {
    "stop_id": "178",
    "stop_code": "WIOS42",
    "stop_name": "Wioślarska",
    "stop_lat": "52.3930340200",
    "stop_lon": "16.9488577900",
    "zone_id": "A"
  },
  {
    "stop_id": "179",
    "stop_code": "OPIA41",
    "stop_name": "Os. Piastowskie",
    "stop_lat": "52.3903419900",
    "stop_lon": "16.9471468100",
    "zone_id": "A"
  },
  {
    "stop_id": "180",
    "stop_code": "OPIA42",
    "stop_name": "Os. Piastowskie",
    "stop_lat": "52.3899918400",
    "stop_lon": "16.9471448300",
    "zone_id": "A"
  },
  {
    "stop_id": "181",
    "stop_code": "ORZE41",
    "stop_name": "Os. Rzeczypospolitej",
    "stop_lat": "52.3853846900",
    "stop_lon": "16.9448386200",
    "zone_id": "A"
  },
  {
    "stop_id": "182",
    "stop_code": "ORZE42",
    "stop_name": "Os. Rzeczypospolitej",
    "stop_lat": "52.3854184000",
    "stop_lon": "16.9450054200",
    "zone_id": "A"
  },
  {
    "stop_id": "183",
    "stop_code": "HEWI42",
    "stop_name": "Hetmańska Wiadukt",
    "stop_lat": "52.3826620500",
    "stop_lon": "16.9294650500",
    "zone_id": "A"
  },
  {
    "stop_id": "184",
    "stop_code": "HEWI41",
    "stop_name": "Hetmańska Wiadukt",
    "stop_lat": "52.3827743900",
    "stop_lon": "16.9292470600",
    "zone_id": "A"
  },
  {
    "stop_id": "185",
    "stop_code": "TRAU41",
    "stop_name": "Traugutta",
    "stop_lat": "52.3846407200",
    "stop_lon": "16.9140023000",
    "zone_id": "A"
  },
  {
    "stop_id": "186",
    "stop_code": "TRAU42",
    "stop_name": "Traugutta",
    "stop_lat": "52.3846996100",
    "stop_lon": "16.9142178600",
    "zone_id": "A"
  },
  {
    "stop_id": "187",
    "stop_code": "ROLN42",
    "stop_name": "Rolna",
    "stop_lat": "52.3839405700",
    "stop_lon": "16.9183777900",
    "zone_id": "A"
  },
  {
    "stop_id": "188",
    "stop_code": "ROLN41",
    "stop_name": "Rolna",
    "stop_lat": "52.3840706900",
    "stop_lon": "16.9181281100",
    "zone_id": "A"
  },
  {
    "stop_id": "189",
    "stop_code": "HCP41",
    "stop_name": "HCP",
    "stop_lat": "52.3824324900",
    "stop_lon": "16.9119498800",
    "zone_id": "A"
  },
  {
    "stop_id": "190",
    "stop_code": "WSPO41",
    "stop_name": "Wspólna",
    "stop_lat": "52.3777846200",
    "stop_lon": "16.9076140700",
    "zone_id": "A"
  },
  {
    "stop_id": "191",
    "stop_code": "WSPO42",
    "stop_name": "Wspólna",
    "stop_lat": "52.3772857100",
    "stop_lon": "16.9074117500",
    "zone_id": "A"
  },
  {
    "stop_id": "192",
    "stop_code": "DEEC41",
    "stop_name": "Dębiec",
    "stop_lat": "52.3728856000",
    "stop_lon": "16.9031857800",
    "zone_id": "A"
  },
  {
    "stop_id": "193",
    "stop_code": "DEEC42",
    "stop_name": "Dębiec",
    "stop_lat": "52.3730591500",
    "stop_lon": "16.9038313800",
    "zone_id": "A"
  },
  {
    "stop_id": "194",
    "stop_code": "STOM41",
    "stop_name": "Stomil",
    "stop_lat": "52.3765038800",
    "stop_lon": "16.9402608900",
    "zone_id": "A"
  },
  {
    "stop_id": "195",
    "stop_code": "STOM43",
    "stop_name": "Stomil",
    "stop_lat": "52.3766108300",
    "stop_lon": "16.9407227900",
    "zone_id": "A"
  },
  {
    "stop_id": "196",
    "stop_code": "STOM42",
    "stop_name": "Stomil",
    "stop_lat": "52.3760523200",
    "stop_lon": "16.9399538100",
    "zone_id": "A"
  },
  {
    "stop_id": "197",
    "stop_code": "BYST41",
    "stop_name": "Bystra",
    "stop_lat": "52.3709991833",
    "stop_lon": "16.9345268592",
    "zone_id": "A"
  },
  {
    "stop_id": "198",
    "stop_code": "BYST42",
    "stop_name": "Bystra",
    "stop_lat": "52.3714098300",
    "stop_lon": "16.9349624900",
    "zone_id": "A"
  },
  {
    "stop_id": "199",
    "stop_code": "STAR41",
    "stop_name": "Starołęka",
    "stop_lat": "52.3684353700",
    "stop_lon": "16.9316765000",
    "zone_id": "A"
  },
  {
    "stop_id": "200",
    "stop_code": "STAR42",
    "stop_name": "Starołęka",
    "stop_lat": "52.3685595700",
    "stop_lon": "16.9323682800",
    "zone_id": "A"
  },
  {
    "stop_id": "201",
    "stop_code": "RZEG42",
    "stop_name": "Rondo Żegrze",
    "stop_lat": "52.3765200000",
    "stop_lon": "16.9547300000",
    "zone_id": "A"
  },
  {
    "stop_id": "202",
    "stop_code": "RZEG41",
    "stop_name": "Rondo Żegrze",
    "stop_lat": "52.3767000000",
    "stop_lon": "16.9542600000",
    "zone_id": "A"
  },
  {
    "stop_id": "203",
    "stop_code": "Z I41",
    "stop_name": "Żegrze I",
    "stop_lat": "52.3789806400",
    "stop_lon": "16.9611208400",
    "zone_id": "A"
  },
  {
    "stop_id": "204",
    "stop_code": "Z I42",
    "stop_name": "Żegrze I",
    "stop_lat": "52.3789265600",
    "stop_lon": "16.9614602200",
    "zone_id": "A"
  },
  {
    "stop_id": "205",
    "stop_code": "Z II41",
    "stop_name": "Żegrze II",
    "stop_lat": "52.3807026800",
    "stop_lon": "16.9659212900",
    "zone_id": "A"
  },
  {
    "stop_id": "206",
    "stop_code": "Z II42",
    "stop_name": "Żegrze II",
    "stop_lat": "52.3807152400",
    "stop_lon": "16.9661947200",
    "zone_id": "A"
  },
  {
    "stop_id": "207",
    "stop_code": "ZIII41",
    "stop_name": "Żegrze III",
    "stop_lat": "52.3832832000",
    "stop_lon": "16.9691011900",
    "zone_id": "A"
  },
  {
    "stop_id": "208",
    "stop_code": "ZIII42",
    "stop_name": "Żegrze III",
    "stop_lat": "52.3833064700",
    "stop_lon": "16.9693135900",
    "zone_id": "A"
  },
  {
    "stop_id": "209",
    "stop_code": "OCZ71",
    "stop_name": "Os. Czecha",
    "stop_lat": "52.3861726200",
    "stop_lon": "16.9754798600",
    "zone_id": "A"
  },
  {
    "stop_id": "210",
    "stop_code": "OCZ72",
    "stop_name": "Os. Czecha",
    "stop_lat": "52.3861128400",
    "stop_lon": "16.9756493300",
    "zone_id": "A"
  },
  {
    "stop_id": "211",
    "stop_code": "OSLE41",
    "stop_name": "Os. Lecha",
    "stop_lat": "52.3898114100",
    "stop_lon": "16.9776571100",
    "zone_id": "A"
  },
  {
    "stop_id": "212",
    "stop_code": "OSLE42",
    "stop_name": "Os. Lecha",
    "stop_lat": "52.3900634300",
    "stop_lon": "16.9778299400",
    "zone_id": "A"
  },
  {
    "stop_id": "213",
    "stop_code": "PIAR41",
    "stop_name": "Piaśnicka Rynek",
    "stop_lat": "52.3876647854",
    "stop_lon": "16.9824741827",
    "zone_id": "A"
  },
  {
    "stop_id": "214",
    "stop_code": "PIAR42",
    "stop_name": "Piaśnicka Rynek",
    "stop_lat": "52.3877999592",
    "stop_lon": "16.9820609709",
    "zone_id": "A"
  },
  {
    "stop_id": "215",
    "stop_code": "PK41",
    "stop_name": "Piaśnicka/Kurlandzka",
    "stop_lat": "52.3850783790",
    "stop_lon": "16.9874179664",
    "zone_id": "A"
  },
  {
    "stop_id": "216",
    "stop_code": "PK42",
    "stop_name": "Piaśnicka/Kurlandzka",
    "stop_lat": "52.3852315850",
    "stop_lon": "16.9871966030",
    "zone_id": "A"
  },
  {
    "stop_id": "217",
    "stop_code": "SZWE41",
    "stop_name": "Szwedzka",
    "stop_lat": "52.3821058400",
    "stop_lon": "16.9908248300",
    "zone_id": "A"
  },
  {
    "stop_id": "218",
    "stop_code": "SZWE42",
    "stop_name": "Szwedzka",
    "stop_lat": "52.3821217700",
    "stop_lon": "16.9909330100",
    "zone_id": "A"
  },
  {
    "stop_id": "219",
    "stop_code": "SZWA42",
    "stop_name": "Szwajcarska",
    "stop_lat": "52.3825556800",
    "stop_lon": "16.9982315400",
    "zone_id": "A"
  },
  {
    "stop_id": "220",
    "stop_code": "SZWA41",
    "stop_name": "Szwajcarska",
    "stop_lat": "52.3824818500",
    "stop_lon": "16.9982370300",
    "zone_id": "A"
  },
  {
    "stop_id": "221",
    "stop_code": "FRWO42",
    "stop_name": "Franowo",
    "stop_lat": "52.3816632800",
    "stop_lon": "17.0014708200",
    "zone_id": "A"
  },
  {
    "stop_id": "222",
    "stop_code": "OSTY41",
    "stop_name": "Os. Tysiąclecia",
    "stop_lat": "52.3922581500",
    "stop_lon": "16.9722808200",
    "zone_id": "A"
  },
  {
    "stop_id": "223",
    "stop_code": "OSTY42",
    "stop_name": "Os. Tysiąclecia",
    "stop_lat": "52.3923968200",
    "stop_lon": "16.9720870200",
    "zone_id": "A"
  },
  {
    "stop_id": "224",
    "stop_code": "POKA41",
    "stop_name": "Polanka",
    "stop_lat": "52.3960358100",
    "stop_lon": "16.9636800500",
    "zone_id": "A"
  },
  {
    "stop_id": "225",
    "stop_code": "POKA42",
    "stop_name": "Polanka",
    "stop_lat": "52.3961561400",
    "stop_lon": "16.9637254900",
    "zone_id": "A"
  },
  {
    "stop_id": "226",
    "stop_code": "HCP42",
    "stop_name": "HCP",
    "stop_lat": "52.3815242000",
    "stop_lon": "16.9113663400",
    "zone_id": "A"
  },
  {
    "stop_id": "227",
    "stop_code": "RYWI71",
    "stop_name": "Rynek Wildecki",
    "stop_lat": "52.3937515400",
    "stop_lon": "16.9213103500",
    "zone_id": "A"
  },
  {
    "stop_id": "228",
    "stop_code": "RYWI72",
    "stop_name": "Rynek Wildecki",
    "stop_lat": "52.3943930700",
    "stop_lon": "16.9214835100",
    "zone_id": "A"
  },
  {
    "stop_id": "229",
    "stop_code": "RYWI43",
    "stop_name": "Rynek Wildecki",
    "stop_lat": "52.3938791400",
    "stop_lon": "16.9219171400",
    "zone_id": "A"
  },
  {
    "stop_id": "230",
    "stop_code": "RYWI44",
    "stop_name": "Rynek Wildecki",
    "stop_lat": "52.3941049700",
    "stop_lon": "16.9224455900",
    "zone_id": "A"
  },
  {
    "stop_id": "231",
    "stop_code": "RSTA45",
    "stop_name": "Rondo Starołęka",
    "stop_lat": "52.3793126100",
    "stop_lon": "16.9426679000",
    "zone_id": "A"
  },
  {
    "stop_id": "232",
    "stop_code": "RSTA46",
    "stop_name": "Rondo Starołęka",
    "stop_lat": "52.3795324100",
    "stop_lon": "16.9429377900",
    "zone_id": "A"
  },
  {
    "stop_id": "233",
    "stop_code": "RSTA41",
    "stop_name": "Rondo Starołęka",
    "stop_lat": "52.3810631200",
    "stop_lon": "16.9433080300",
    "zone_id": "A"
  },
  {
    "stop_id": "234",
    "stop_code": "RSTA42",
    "stop_name": "Rondo Starołęka",
    "stop_lat": "52.3810055800",
    "stop_lon": "16.9435005400",
    "zone_id": "A"
  },
  {
    "stop_id": "235",
    "stop_code": "RSTA44",
    "stop_name": "Rondo Starołęka",
    "stop_lat": "52.3803896900",
    "stop_lon": "16.9422208600",
    "zone_id": "A"
  },
  {
    "stop_id": "236",
    "stop_code": "RSTA43",
    "stop_name": "Rondo Starołęka",
    "stop_lat": "52.3805416700",
    "stop_lon": "16.9421001900",
    "zone_id": "A"
  },
  {
    "stop_id": "237",
    "stop_code": "RSTA48",
    "stop_name": "Rondo Starołęka",
    "stop_lat": "52.3797589900",
    "stop_lon": "16.9443395900",
    "zone_id": "A"
  },
  {
    "stop_id": "238",
    "stop_code": "RSTA47",
    "stop_name": "Rondo Starołęka",
    "stop_lat": "52.3799600900",
    "stop_lon": "16.9440334600",
    "zone_id": "A"
  },
  {
    "stop_id": "239",
    "stop_code": "MORO71",
    "stop_name": "Most Św. Rocha",
    "stop_lat": "52.4026611500",
    "stop_lon": "16.9423726100",
    "zone_id": "A"
  },
  {
    "stop_id": "240",
    "stop_code": "MORO72",
    "stop_name": "Most Św. Rocha",
    "stop_lat": "52.4027711600",
    "stop_lon": "16.9422831200",
    "zone_id": "A"
  },
  {
    "stop_id": "243",
    "stop_code": "CHSZK02",
    "stop_name": "Chludowo/Szkoła",
    "stop_lat": "52.5561078600",
    "stop_lon": "16.8443741700",
    "zone_id": "C"
  },
  {
    "stop_id": "244",
    "stop_code": "CHRYN02",
    "stop_name": "Chludowo/Rynek",
    "stop_lat": "52.5552510800",
    "stop_lon": "16.8493123200",
    "zone_id": "C"
  },
  {
    "stop_id": "245",
    "stop_code": "CHKOS02",
    "stop_name": "Chludowo/Kościół",
    "stop_lat": "52.5574263100",
    "stop_lon": "16.8454754500",
    "zone_id": "C"
  },
  {
    "stop_id": "246",
    "stop_code": "CHTYS01",
    "stop_name": "Chludowo/Tysiąclecia",
    "stop_lat": "52.5593526200",
    "stop_lon": "16.8384256000",
    "zone_id": "C"
  },
  {
    "stop_id": "247",
    "stop_code": "CHTYS02",
    "stop_name": "Chludowo/Tysiąclecia",
    "stop_lat": "52.5594717900",
    "stop_lon": "16.8382236600",
    "zone_id": "C"
  },
  {
    "stop_id": "248",
    "stop_code": "CHWAR02",
    "stop_name": "Chludowo/Wargowska",
    "stop_lat": "52.5600436400",
    "stop_lon": "16.8321087600",
    "zone_id": "C"
  },
  {
    "stop_id": "249",
    "stop_code": "CHWAR01",
    "stop_name": "Chludowo/Wargowska",
    "stop_lat": "52.5600632600",
    "stop_lon": "16.8342824400",
    "zone_id": "C"
  },
  {
    "stop_id": "250",
    "stop_code": "CHSTA01",
    "stop_name": "Chludowo/Stacja",
    "stop_lat": "52.5599405900",
    "stop_lon": "16.8271220300",
    "zone_id": "C"
  },
  {
    "stop_id": "251",
    "stop_code": "CHSTA02",
    "stop_name": "Chludowo/Stacja",
    "stop_lat": "52.5600370600",
    "stop_lon": "16.8263996400",
    "zone_id": "C"
  },
  {
    "stop_id": "252",
    "stop_code": "CHNAT02",
    "stop_name": "Chludowo/Nad Torem",
    "stop_lat": "52.5604177800",
    "stop_lon": "16.8196280500",
    "zone_id": "C"
  },
  {
    "stop_id": "253",
    "stop_code": "CHNAT01",
    "stop_name": "Chludowo/Nad Torem",
    "stop_lat": "52.5602843600",
    "stop_lon": "16.8210855900",
    "zone_id": "C"
  },
  {
    "stop_id": "254",
    "stop_code": "ZIWSP01",
    "stop_name": "Zielątkowo/Wspólna",
    "stop_lat": "52.5605640700",
    "stop_lon": "16.8126771500",
    "zone_id": "C"
  },
  {
    "stop_id": "255",
    "stop_code": "ZIWSP02",
    "stop_name": "Zielątkowo/Wspólna",
    "stop_lat": "52.5606240800",
    "stop_lon": "16.8127820000",
    "zone_id": "C"
  },
  {
    "stop_id": "256",
    "stop_code": "ZIPOG01",
    "stop_name": "Zielątkowo/Pogodna",
    "stop_lat": "52.5600237900",
    "stop_lon": "16.8069706400",
    "zone_id": "C"
  },
  {
    "stop_id": "257",
    "stop_code": "ZIPOG02",
    "stop_name": "Zielątkowo/Pogodna",
    "stop_lat": "52.5598768500",
    "stop_lon": "16.8048330200",
    "zone_id": "C"
  },
  {
    "stop_id": "258",
    "stop_code": "ZIOSP02",
    "stop_name": "Zielątkowo/OSP",
    "stop_lat": "52.5599872100",
    "stop_lon": "16.7977223800",
    "zone_id": "C"
  },
  {
    "stop_id": "259",
    "stop_code": "ZIOSP01",
    "stop_name": "Zielątkowo/OSP",
    "stop_lat": "52.5605177300",
    "stop_lon": "16.7978700900",
    "zone_id": "C"
  },
  {
    "stop_id": "260",
    "stop_code": "ZISWI02",
    "stop_name": "Zielątkowo/Świerkowa",
    "stop_lat": "52.5538325900",
    "stop_lon": "16.7978270700",
    "zone_id": "C"
  },
  {
    "stop_id": "261",
    "stop_code": "ZISWI01",
    "stop_name": "Zielątkowo/Świerkowa",
    "stop_lat": "52.5544832400",
    "stop_lon": "16.7979004100",
    "zone_id": "C"
  },
  {
    "stop_id": "262",
    "stop_code": "ZILAS02",
    "stop_name": "Zielątkowo/Las",
    "stop_lat": "52.5462284100",
    "stop_lon": "16.8001455900",
    "zone_id": "C"
  },
  {
    "stop_id": "263",
    "stop_code": "ZILAS01",
    "stop_name": "Zielątkowo/Las",
    "stop_lat": "52.5463516400",
    "stop_lon": "16.8000753000",
    "zone_id": "C"
  },
  {
    "stop_id": "264",
    "stop_code": "GOPRO01",
    "stop_name": "Golęczewo/Promienista",
    "stop_lat": "52.5371394900",
    "stop_lon": "16.8116125400",
    "zone_id": "C"
  },
  {
    "stop_id": "265",
    "stop_code": "GOPRO02",
    "stop_name": "Golęczewo/Promienista",
    "stop_lat": "52.5372995800",
    "stop_lon": "16.8109521500",
    "zone_id": "C"
  },
  {
    "stop_id": "266",
    "stop_code": "GOSZK02",
    "stop_name": "Golęczewo/Szkoła",
    "stop_lat": "52.5350047900",
    "stop_lon": "16.8195953300",
    "zone_id": "C"
  },
  {
    "stop_id": "267",
    "stop_code": "GOSZK01",
    "stop_name": "Golęczewo/Szkoła",
    "stop_lat": "52.5350996600",
    "stop_lon": "16.8190061700",
    "zone_id": "C"
  },
  {
    "stop_id": "268",
    "stop_code": "GOSTA02",
    "stop_name": "Golęczewo/Stacja",
    "stop_lat": "52.5349678600",
    "stop_lon": "16.8268641000",
    "zone_id": "C"
  },
  {
    "stop_id": "269",
    "stop_code": "GOSTA01",
    "stop_name": "Golęczewo/Stacja",
    "stop_lat": "52.5352214100",
    "stop_lon": "16.8254695100",
    "zone_id": "C"
  },
  {
    "stop_id": "270",
    "stop_code": "GOOBO01",
    "stop_name": "Golęczewo/Obornicka",
    "stop_lat": "52.5354452900",
    "stop_lon": "16.8346253700",
    "zone_id": "C"
  },
  {
    "stop_id": "271",
    "stop_code": "GOOBO02",
    "stop_name": "Golęczewo/Obornicka",
    "stop_lat": "52.5350930700",
    "stop_lon": "16.8354304500",
    "zone_id": "C"
  },
  {
    "stop_id": "272",
    "stop_code": "ZOSOB02",
    "stop_name": "Złotkowo/Sobocka",
    "stop_lat": "52.5131390900",
    "stop_lon": "16.8354751900",
    "zone_id": "B"
  },
  {
    "stop_id": "273",
    "stop_code": "ZOSOB01",
    "stop_name": "Złotkowo/Sobocka",
    "stop_lat": "52.5132079000",
    "stop_lon": "16.8354985600",
    "zone_id": "B"
  },
  {
    "stop_id": "274",
    "stop_code": "ZOWIE02",
    "stop_name": "Złotkowo/Wieś",
    "stop_lat": "52.5115741800",
    "stop_lon": "16.8391927100",
    "zone_id": "B"
  },
  {
    "stop_id": "275",
    "stop_code": "ZOWIE01",
    "stop_name": "Złotkowo/Wieś",
    "stop_lat": "52.5114700600",
    "stop_lon": "16.8395369200",
    "zone_id": "B"
  },
  {
    "stop_id": "276",
    "stop_code": "ZOCED02",
    "stop_name": "Złotkowo/Cedrowa",
    "stop_lat": "52.5088791200",
    "stop_lon": "16.8369692000",
    "zone_id": "B"
  },
  {
    "stop_id": "277",
    "stop_code": "ZOCED01",
    "stop_name": "Złotkowo/Cedrowa",
    "stop_lat": "52.5080470900",
    "stop_lon": "16.8357042100",
    "zone_id": "B"
  },
  {
    "stop_id": "278",
    "stop_code": "ZOZYT02",
    "stop_name": "Złotkowo/Żytnia",
    "stop_lat": "52.5012182000",
    "stop_lon": "16.8372413600",
    "zone_id": "B"
  },
  {
    "stop_id": "279",
    "stop_code": "ZOZYT01",
    "stop_name": "Złotkowo/Żytnia",
    "stop_lat": "52.5021057200",
    "stop_lon": "16.8370466500",
    "zone_id": "B"
  },
  {
    "stop_id": "280",
    "stop_code": "ZLPAW01",
    "stop_name": "Złotniki/Pawłowicka",
    "stop_lat": "52.4976979800",
    "stop_lon": "16.8398987000",
    "zone_id": "B"
  },
  {
    "stop_id": "281",
    "stop_code": "ZLPAW02",
    "stop_name": "Złotniki/Pawłowicka",
    "stop_lat": "52.4981670100",
    "stop_lon": "16.8391154200",
    "zone_id": "B"
  },
  {
    "stop_id": "282",
    "stop_code": "ZLLAG02",
    "stop_name": "Złotniki/Łagiewnicka",
    "stop_lat": "52.4914781500",
    "stop_lon": "16.8466062100",
    "zone_id": "B"
  },
  {
    "stop_id": "283",
    "stop_code": "ZLLAG01",
    "stop_name": "Złotniki/Łagiewnicka",
    "stop_lat": "52.4921588600",
    "stop_lon": "16.8460696500",
    "zone_id": "B"
  },
  {
    "stop_id": "284",
    "stop_code": "ZLZIE01",
    "stop_name": "Złotniki/Zielona",
    "stop_lat": "52.4920706700",
    "stop_lon": "16.8420290300",
    "zone_id": "B"
  },
  {
    "stop_id": "285",
    "stop_code": "ZLZIE02",
    "stop_name": "Złotniki/Zielona",
    "stop_lat": "52.4916171612",
    "stop_lon": "16.8410081800",
    "zone_id": "B"
  },
  {
    "stop_id": "286",
    "stop_code": "ZLWIE01",
    "stop_name": "Złotniki/Wieś",
    "stop_lat": "52.4867062600",
    "stop_lon": "16.8311198800",
    "zone_id": "B"
  },
  {
    "stop_id": "291",
    "stop_code": "ZLZLO02",
    "stop_name": "Złotniki/Złotnicka",
    "stop_lat": "52.4856637100",
    "stop_lon": "16.8546857500",
    "zone_id": "B"
  },
  {
    "stop_id": "292",
    "stop_code": "ZLZLO03",
    "stop_name": "Złotniki/Złotnicka",
    "stop_lat": "52.4866893800",
    "stop_lon": "16.8557331300",
    "zone_id": "B"
  },
  {
    "stop_id": "293",
    "stop_code": "JENEK02",
    "stop_name": "Jelonek/Nektarowa",
    "stop_lat": "52.4826130400",
    "stop_lon": "16.8602369300",
    "zone_id": "B"
  },
  {
    "stop_id": "294",
    "stop_code": "JENEK01",
    "stop_name": "Jelonek/Nektarowa",
    "stop_lat": "52.4832714600",
    "stop_lon": "16.8592365100",
    "zone_id": "B"
  },
  {
    "stop_id": "295",
    "stop_code": "ZLGRZ02",
    "stop_name": "Złotniki/Os. Grzybowe",
    "stop_lat": "52.4797848400",
    "stop_lon": "16.8584920500",
    "zone_id": "B"
  },
  {
    "stop_id": "297",
    "stop_code": "ZLZLO01",
    "stop_name": "Złotniki/Złotnicka",
    "stop_lat": "52.4868397800",
    "stop_lon": "16.8534343900",
    "zone_id": "B"
  },
  {
    "stop_id": "298",
    "stop_code": "SLKON02",
    "stop_name": "Suchy Las/Konwaliowa",
    "stop_lat": "52.4780036366",
    "stop_lon": "16.8696378530",
    "zone_id": "B"
  },
  {
    "stop_id": "299",
    "stop_code": "SLKON01",
    "stop_name": "Suchy Las/Konwaliowa",
    "stop_lat": "52.4784712780",
    "stop_lon": "16.8687966719",
    "zone_id": "B"
  },
  {
    "stop_id": "300",
    "stop_code": "SLSZK02",
    "stop_name": "Suchy Las/Szkoła",
    "stop_lat": "52.4753299200",
    "stop_lon": "16.8735462100",
    "zone_id": "B"
  },
  {
    "stop_id": "301",
    "stop_code": "SLSZK01",
    "stop_name": "Suchy Las/Szkoła",
    "stop_lat": "52.4763622500",
    "stop_lon": "16.8722816600",
    "zone_id": "B"
  },
  {
    "stop_id": "302",
    "stop_code": "SLKOS01",
    "stop_name": "Suchy Las/Kościół",
    "stop_lat": "52.4731420800",
    "stop_lon": "16.8772196700",
    "zone_id": "B"
  },
  {
    "stop_id": "303",
    "stop_code": "SLKOS03",
    "stop_name": "Suchy Las/Kościół",
    "stop_lat": "52.4736033600",
    "stop_lon": "16.8782179000",
    "zone_id": "B"
  },
  {
    "stop_id": "304",
    "stop_code": "SLOSZ02",
    "stop_name": "Suchy Las/Os. Szafirowe",
    "stop_lat": "52.4708894787",
    "stop_lon": "16.8753490300",
    "zone_id": "B"
  },
  {
    "stop_id": "305",
    "stop_code": "SLKOS02",
    "stop_name": "Suchy Las/Kościół",
    "stop_lat": "52.4723317000",
    "stop_lon": "16.8780680300",
    "zone_id": "B"
  },
  {
    "stop_id": "306",
    "stop_code": "SLNWR02",
    "stop_name": "Suchy Las/Nowy Rynek",
    "stop_lat": "52.4750612400",
    "stop_lon": "16.8791538900",
    "zone_id": "B"
  },
  {
    "stop_id": "307",
    "stop_code": "SLNWR01",
    "stop_name": "Suchy Las/Nowy Rynek",
    "stop_lat": "52.4752666000",
    "stop_lon": "16.8807941000",
    "zone_id": "B"
  },
  {
    "stop_id": "308",
    "stop_code": "SLSTR02",
    "stop_name": "Suchy Las/Strażacka",
    "stop_lat": "52.4750086700",
    "stop_lon": "16.8851559500",
    "zone_id": "B"
  },
  {
    "stop_id": "309",
    "stop_code": "SLSTR01",
    "stop_name": "Suchy Las/Strażacka",
    "stop_lat": "52.4751292700",
    "stop_lon": "16.8836674700",
    "zone_id": "B"
  },
  {
    "stop_id": "310",
    "stop_code": "SLLAK01",
    "stop_name": "Suchy Las/Łąkowa",
    "stop_lat": "52.4811305700",
    "stop_lon": "16.8790950300",
    "zone_id": "B"
  },
  {
    "stop_id": "311",
    "stop_code": "SLLAK02",
    "stop_name": "Suchy Las/Łąkowa",
    "stop_lat": "52.4805539000",
    "stop_lon": "16.8790552200",
    "zone_id": "B"
  },
  {
    "stop_id": "312",
    "stop_code": "SLDZI01",
    "stop_name": "Suchy Las/Działki",
    "stop_lat": "52.4866868400",
    "stop_lon": "16.8796299900",
    "zone_id": "B"
  },
  {
    "stop_id": "313",
    "stop_code": "SLKRA02",
    "stop_name": "Suchy Las/Krańcowa",
    "stop_lat": "52.4813876500",
    "stop_lon": "16.8864448500",
    "zone_id": "B"
  },
  {
    "stop_id": "314",
    "stop_code": "SLKRA01",
    "stop_name": "Suchy Las/Krańcowa",
    "stop_lat": "52.4813058000",
    "stop_lon": "16.8860568100",
    "zone_id": "B"
  },
  {
    "stop_id": "315",
    "stop_code": "MORA02",
    "stop_name": "Morasko",
    "stop_lat": "52.4892681800",
    "stop_lon": "16.9054379000",
    "zone_id": "A"
  },
  {
    "stop_id": "316",
    "stop_code": "MOKO02",
    "stop_name": "Morasko Kościół",
    "stop_lat": "52.4887599500",
    "stop_lon": "16.9084893200",
    "zone_id": "A"
  },
  {
    "stop_id": "317",
    "stop_code": "MOKO01",
    "stop_name": "Morasko Kościół",
    "stop_lat": "52.4884915500",
    "stop_lon": "16.9089182200",
    "zone_id": "A"
  },
  {
    "stop_id": "318",
    "stop_code": "MOCM02",
    "stop_name": "Morasko Cmentarz",
    "stop_lat": "52.4844634100",
    "stop_lon": "16.9100089000",
    "zone_id": "A"
  },
  {
    "stop_id": "319",
    "stop_code": "MOCM01",
    "stop_name": "Morasko Cmentarz",
    "stop_lat": "52.4846278500",
    "stop_lon": "16.9101536300",
    "zone_id": "A"
  },
  {
    "stop_id": "320",
    "stop_code": "SZKL02",
    "stop_name": "Szklarniowa",
    "stop_lat": "52.4771069700",
    "stop_lon": "16.9062235400",
    "zone_id": "A"
  },
  {
    "stop_id": "321",
    "stop_code": "SZKL01",
    "stop_name": "Szklarniowa",
    "stop_lat": "52.4775378300",
    "stop_lon": "16.9066457200",
    "zone_id": "A"
  },
  {
    "stop_id": "322",
    "stop_code": "DESZ02",
    "stop_name": "Deszczowa",
    "stop_lat": "52.4716679700",
    "stop_lon": "16.9019816600",
    "zone_id": "A"
  },
  {
    "stop_id": "323",
    "stop_code": "DESZ01",
    "stop_name": "Deszczowa",
    "stop_lat": "52.4719328406",
    "stop_lon": "16.9023406135",
    "zone_id": "A"
  },
  {
    "stop_id": "324",
    "stop_code": "SLPRZ01",
    "stop_name": "Suchy Las/Os. Przylesie",
    "stop_lat": "52.4734913200",
    "stop_lon": "16.8977641800",
    "zone_id": "B"
  },
  {
    "stop_id": "325",
    "stop_code": "SLPRZ02",
    "stop_name": "Suchy Las/Os. Przylesie",
    "stop_lat": "52.4733187600",
    "stop_lon": "16.8979097800",
    "zone_id": "B"
  },
  {
    "stop_id": "326",
    "stop_code": "SLSPR01",
    "stop_name": "Suchy Las/Sprzeczna",
    "stop_lat": "52.4746912800",
    "stop_lon": "16.8935577600",
    "zone_id": "B"
  },
  {
    "stop_id": "327",
    "stop_code": "SLSPR02",
    "stop_name": "Suchy Las/Sprzeczna",
    "stop_lat": "52.4746265600",
    "stop_lon": "16.8936914100",
    "zone_id": "B"
  },
  {
    "stop_id": "328",
    "stop_code": "SLPRO01",
    "stop_name": "Suchy Las/Promienista",
    "stop_lat": "52.4783970400",
    "stop_lon": "16.8605156100",
    "zone_id": "B"
  },
  {
    "stop_id": "329",
    "stop_code": "SLPRO02",
    "stop_name": "Suchy Las/Promienista",
    "stop_lat": "52.4781626300",
    "stop_lon": "16.8604308500",
    "zone_id": "B"
  },
  {
    "stop_id": "330",
    "stop_code": "SLBOR02",
    "stop_name": "Suchy Las/Borówkowa",
    "stop_lat": "52.4743723400",
    "stop_lon": "16.8626849100",
    "zone_id": "B"
  },
  {
    "stop_id": "331",
    "stop_code": "SLBOR01",
    "stop_name": "Suchy Las/Borówkowa",
    "stop_lat": "52.4736028600",
    "stop_lon": "16.8637106000",
    "zone_id": "B"
  },
  {
    "stop_id": "332",
    "stop_code": "SLJAG01",
    "stop_name": "Suchy Las/Os. Jagodowe",
    "stop_lat": "52.4712284700",
    "stop_lon": "16.8684930200",
    "zone_id": "B"
  },
  {
    "stop_id": "333",
    "stop_code": "SLJAG02",
    "stop_name": "Suchy Las/Os. Jagodowe",
    "stop_lat": "52.4716052000",
    "stop_lon": "16.8673430300",
    "zone_id": "B"
  },
  {
    "stop_id": "334",
    "stop_code": "SLPOZ02",
    "stop_name": "Suchy Las/Os. Poziomkowe",
    "stop_lat": "52.4692361000",
    "stop_lon": "16.8730062900",
    "zone_id": "B"
  },
  {
    "stop_id": "335",
    "stop_code": "SLPOZ01",
    "stop_name": "Suchy Las/Os. Poziomkowe",
    "stop_lat": "52.4693847100",
    "stop_lon": "16.8728784300",
    "zone_id": "B"
  },
  {
    "stop_id": "336",
    "stop_code": "SLWIA01",
    "stop_name": "Suchy Las/Wiadukt",
    "stop_lat": "52.4694683081",
    "stop_lon": "16.8825359634",
    "zone_id": "B"
  },
  {
    "stop_id": "337",
    "stop_code": "SLWIA02",
    "stop_name": "Suchy Las/Wiadukt",
    "stop_lat": "52.4683773500",
    "stop_lon": "16.8841298500",
    "zone_id": "B"
  },
  {
    "stop_id": "340",
    "stop_code": "SS I02",
    "stop_name": "Szarych Szeregów I",
    "stop_lat": "52.4618071800",
    "stop_lon": "16.8850988000",
    "zone_id": "A"
  },
  {
    "stop_id": "341",
    "stop_code": "SS I01",
    "stop_name": "Szarych Szeregów I",
    "stop_lat": "52.4623720600",
    "stop_lon": "16.8860637900",
    "zone_id": "A"
  },
  {
    "stop_id": "342",
    "stop_code": "SZSZ01",
    "stop_name": "Szarych Szeregów",
    "stop_lat": "52.4600260500",
    "stop_lon": "16.8821202800",
    "zone_id": "A"
  },
  {
    "stop_id": "343",
    "stop_code": "SZSZ02",
    "stop_name": "Szarych Szeregów",
    "stop_lat": "52.4591456900",
    "stop_lon": "16.8803907400",
    "zone_id": "A"
  },
  {
    "stop_id": "344",
    "stop_code": "BIAL02",
    "stop_name": "Białczańska",
    "stop_lat": "52.4570019700",
    "stop_lon": "16.8793614500",
    "zone_id": "A"
  },
  {
    "stop_id": "345",
    "stop_code": "BIAL01",
    "stop_name": "Białczańska",
    "stop_lat": "52.4573127500",
    "stop_lon": "16.8791045800",
    "zone_id": "A"
  },
  {
    "stop_id": "346",
    "stop_code": "BIAL03",
    "stop_name": "Białczańska",
    "stop_lat": "52.4578877600",
    "stop_lon": "16.8781556200",
    "zone_id": "A"
  },
  {
    "stop_id": "347",
    "stop_code": "KOSO02",
    "stop_name": "Kosowska",
    "stop_lat": "52.4560162800",
    "stop_lon": "16.8773008700",
    "zone_id": "A"
  },
  {
    "stop_id": "348",
    "stop_code": "KOSO01",
    "stop_name": "Kosowska",
    "stop_lat": "52.4559956000",
    "stop_lon": "16.8774373600",
    "zone_id": "A"
  },
  {
    "stop_id": "349",
    "stop_code": "MORS01",
    "stop_name": "Morszyńska",
    "stop_lat": "52.4579201500",
    "stop_lon": "16.8727657600",
    "zone_id": "A"
  },
  {
    "stop_id": "350",
    "stop_code": "MORS02",
    "stop_name": "Morszyńska",
    "stop_lat": "52.4582613800",
    "stop_lon": "16.8719060700",
    "zone_id": "A"
  },
  {
    "stop_id": "351",
    "stop_code": "PODO03",
    "stop_name": "Podolany",
    "stop_lat": "52.4616032400",
    "stop_lon": "16.8664355000",
    "zone_id": "A"
  },
  {
    "stop_id": "352",
    "stop_code": "PODO04",
    "stop_name": "Podolany",
    "stop_lat": "52.4613580400",
    "stop_lon": "16.8664274800",
    "zone_id": "A"
  },
  {
    "stop_id": "353",
    "stop_code": "PODO02",
    "stop_name": "Podolany",
    "stop_lat": "52.4619623700",
    "stop_lon": "16.8667445600",
    "zone_id": "A"
  },
  {
    "stop_id": "354",
    "stop_code": "PODO01",
    "stop_name": "Podolany",
    "stop_lat": "52.4621111700",
    "stop_lon": "16.8666883700",
    "zone_id": "A"
  },
  {
    "stop_id": "355",
    "stop_code": "SUCH02",
    "stop_name": "Sucholeska",
    "stop_lat": "52.4623384300",
    "stop_lon": "16.8688846200",
    "zone_id": "A"
  },
  {
    "stop_id": "356",
    "stop_code": "SUCH01",
    "stop_name": "Sucholeska",
    "stop_lat": "52.4625733300",
    "stop_lon": "16.8685713400",
    "zone_id": "A"
  },
  {
    "stop_id": "357",
    "stop_code": "SYPU02",
    "stop_name": "Synów Pułku",
    "stop_lat": "52.4598768800",
    "stop_lon": "16.8743058000",
    "zone_id": "A"
  },
  {
    "stop_id": "358",
    "stop_code": "SYPU01",
    "stop_name": "Synów Pułku",
    "stop_lat": "52.4605713300",
    "stop_lon": "16.8730878900",
    "zone_id": "A"
  },
  {
    "stop_id": "359",
    "stop_code": "LEGO01",
    "stop_name": "Łęgowskiego",
    "stop_lat": "52.4608925200",
    "stop_lon": "16.8931590400",
    "zone_id": "A"
  },
  {
    "stop_id": "360",
    "stop_code": "LEGO02",
    "stop_name": "Łęgowskiego",
    "stop_lat": "52.4609955600",
    "stop_lon": "16.8927830700",
    "zone_id": "A"
  },
  {
    "stop_id": "361",
    "stop_code": "HULE02",
    "stop_name": "Hulewiczów",
    "stop_lat": "52.4558212400",
    "stop_lon": "16.8984131000",
    "zone_id": "A"
  },
  {
    "stop_id": "362",
    "stop_code": "HULE01",
    "stop_name": "Hulewiczów",
    "stop_lat": "52.4565911000",
    "stop_lon": "16.8979252100",
    "zone_id": "A"
  },
  {
    "stop_id": "364",
    "stop_code": "STRO02",
    "stop_name": "Stróżyńskiego",
    "stop_lat": "52.4517175200",
    "stop_lon": "16.9038872100",
    "zone_id": "A"
  },
  {
    "stop_id": "365",
    "stop_code": "OJLY02",
    "stop_name": "Os. Jagiełły",
    "stop_lat": "52.4535995700",
    "stop_lon": "16.9073589300",
    "zone_id": "A"
  },
  {
    "stop_id": "366",
    "stop_code": "OJLY01",
    "stop_name": "Os. Jagiełły",
    "stop_lat": "52.4547267200",
    "stop_lon": "16.9045831000",
    "zone_id": "A"
  },
  {
    "stop_id": "367",
    "stop_code": "WRTV02",
    "stop_name": "Wieża RTV",
    "stop_lat": "52.4573215300",
    "stop_lon": "16.9041604300",
    "zone_id": "A"
  },
  {
    "stop_id": "368",
    "stop_code": "WRTV01",
    "stop_name": "Wieża RTV",
    "stop_lat": "52.4581533000",
    "stop_lon": "16.9044244300",
    "zone_id": "A"
  },
  {
    "stop_id": "373",
    "stop_code": "MAGO01",
    "stop_name": "Mateckiego",
    "stop_lat": "52.4612617400",
    "stop_lon": "16.8978341800",
    "zone_id": "A"
  },
  {
    "stop_id": "374",
    "stop_code": "MAGO02",
    "stop_name": "Mateckiego",
    "stop_lat": "52.4623275700",
    "stop_lon": "16.8984868900",
    "zone_id": "A"
  },
  {
    "stop_id": "375",
    "stop_code": "WIET01",
    "stop_name": "Wietrzna",
    "stop_lat": "52.4687448900",
    "stop_lon": "16.9009097300",
    "zone_id": "A"
  },
  {
    "stop_id": "376",
    "stop_code": "WIET02",
    "stop_name": "Wietrzna",
    "stop_lat": "52.4683871600",
    "stop_lon": "16.9005959200",
    "zone_id": "A"
  },
  {
    "stop_id": "380",
    "stop_code": "SOB21",
    "stop_name": "Os. Sobieskiego",
    "stop_lat": "52.4650301900",
    "stop_lon": "16.9171600600",
    "zone_id": "A"
  },
  {
    "stop_id": "381",
    "stop_code": "SOB30",
    "stop_name": "Os. Sobieskiego",
    "stop_lat": "52.4650545300",
    "stop_lon": "16.9165060800",
    "zone_id": "A"
  },
  {
    "stop_id": "382",
    "stop_code": "SOB01",
    "stop_name": "Os. Sobieskiego",
    "stop_lat": "52.4636932061",
    "stop_lon": "16.9164340865",
    "zone_id": "A"
  },
  {
    "stop_id": "383",
    "stop_code": "SZLI02",
    "stop_name": "Szeligowskiego",
    "stop_lat": "52.4625870400",
    "stop_lon": "16.9176231500",
    "zone_id": "A"
  },
  {
    "stop_id": "384",
    "stop_code": "SZLI01",
    "stop_name": "Szeligowskiego",
    "stop_lat": "52.4627051200",
    "stop_lon": "16.9179703700",
    "zone_id": "A"
  },
  {
    "stop_id": "385",
    "stop_code": "SZYM08",
    "stop_name": "Szymanowskiego",
    "stop_lat": "52.4602038200",
    "stop_lon": "16.9158013600",
    "zone_id": "A"
  },
  {
    "stop_id": "386",
    "stop_code": "SZYM02",
    "stop_name": "Szymanowskiego",
    "stop_lat": "52.4601525700",
    "stop_lon": "16.9170216000",
    "zone_id": "A"
  },
  {
    "stop_id": "387",
    "stop_code": "SZYM01",
    "stop_name": "Szymanowskiego",
    "stop_lat": "52.4605915400",
    "stop_lon": "16.9170346000",
    "zone_id": "A"
  },
  {
    "stop_id": "388",
    "stop_code": "SZYM04",
    "stop_name": "Szymanowskiego",
    "stop_lat": "52.4602173400",
    "stop_lon": "16.9191827800",
    "zone_id": "A"
  },
  {
    "stop_id": "389",
    "stop_code": "OPIE02",
    "stop_name": "Opieńskiego",
    "stop_lat": "52.4599041300",
    "stop_lon": "16.9217350800",
    "zone_id": "A"
  },
  {
    "stop_id": "390",
    "stop_code": "OPIE01",
    "stop_name": "Opieńskiego",
    "stop_lat": "52.4600337200",
    "stop_lon": "16.9232562400",
    "zone_id": "A"
  },
  {
    "stop_id": "391",
    "stop_code": "OSBA03",
    "stop_name": "Os. Batorego II",
    "stop_lat": "52.4598635700",
    "stop_lon": "16.9274543900",
    "zone_id": "A"
  },
  {
    "stop_id": "392",
    "stop_code": "OSBA04",
    "stop_name": "Os. Batorego II",
    "stop_lat": "52.4595441500",
    "stop_lon": "16.9266402500",
    "zone_id": "A"
  },
  {
    "stop_id": "393",
    "stop_code": "OSBA02",
    "stop_name": "Os. Batorego II",
    "stop_lat": "52.4605144200",
    "stop_lon": "16.9286422400",
    "zone_id": "A"
  },
  {
    "stop_id": "394",
    "stop_code": "OSBA01",
    "stop_name": "Os. Batorego II",
    "stop_lat": "52.4607028300",
    "stop_lon": "16.9289892400",
    "zone_id": "A"
  },
  {
    "stop_id": "395",
    "stop_code": "OSBI02",
    "stop_name": "Os. Batorego I",
    "stop_lat": "52.4564226900",
    "stop_lon": "16.9273779300",
    "zone_id": "A"
  },
  {
    "stop_id": "396",
    "stop_code": "OSBI01",
    "stop_name": "Os. Batorego I",
    "stop_lat": "52.4570192800",
    "stop_lon": "16.9276707800",
    "zone_id": "A"
  },
  {
    "stop_id": "397",
    "stop_code": "STRU02",
    "stop_name": "Strugarka",
    "stop_lat": "52.4532731100",
    "stop_lon": "16.9274707300",
    "zone_id": "A"
  },
  {
    "stop_id": "398",
    "stop_code": "STRU01",
    "stop_name": "Strugarka",
    "stop_lat": "52.4541267700",
    "stop_lon": "16.9276875100",
    "zone_id": "A"
  },
  {
    "stop_id": "399",
    "stop_code": "STOI02",
    "stop_name": "Stoińskiego",
    "stop_lat": "52.4502145200",
    "stop_lon": "16.9271609000",
    "zone_id": "A"
  },
  {
    "stop_id": "400",
    "stop_code": "STOI04",
    "stop_name": "Stoińskiego",
    "stop_lat": "52.4507071500",
    "stop_lon": "16.9287427700",
    "zone_id": "A"
  },
  {
    "stop_id": "401",
    "stop_code": "STOI01",
    "stop_name": "Stoińskiego",
    "stop_lat": "52.4517639100",
    "stop_lon": "16.9276784100",
    "zone_id": "A"
  },
  {
    "stop_id": "402",
    "stop_code": "KURP06",
    "stop_name": "Kurpińskiego",
    "stop_lat": "52.4506116000",
    "stop_lon": "16.9217926900",
    "zone_id": "A"
  },
  {
    "stop_id": "403",
    "stop_code": "KURP02",
    "stop_name": "Kurpińskiego",
    "stop_lat": "52.4505247900",
    "stop_lon": "16.9195517600",
    "zone_id": "A"
  },
  {
    "stop_id": "404",
    "stop_code": "KURP01",
    "stop_name": "Kurpińskiego",
    "stop_lat": "52.4509611200",
    "stop_lon": "16.9194839200",
    "zone_id": "A"
  },
  {
    "stop_id": "405",
    "stop_code": "KURP03",
    "stop_name": "Kurpińskiego",
    "stop_lat": "52.4513937900",
    "stop_lon": "16.9205054900",
    "zone_id": "A"
  },
  {
    "stop_id": "406",
    "stop_code": "OSCH02",
    "stop_name": "Os. Chrobrego",
    "stop_lat": "52.4515616700",
    "stop_lon": "16.9119593900",
    "zone_id": "A"
  },
  {
    "stop_id": "407",
    "stop_code": "OSCH01",
    "stop_name": "Os. Chrobrego",
    "stop_lat": "52.4523531300",
    "stop_lon": "16.9119273400",
    "zone_id": "A"
  },
  {
    "stop_id": "408",
    "stop_code": "WOKI01",
    "stop_name": "Wojciechowskiego",
    "stop_lat": "52.4506791100",
    "stop_lon": "16.9142883900",
    "zone_id": "A"
  },
  {
    "stop_id": "409",
    "stop_code": "WOKI02",
    "stop_name": "Wojciechowskiego",
    "stop_lat": "52.4506105500",
    "stop_lon": "16.9151571400",
    "zone_id": "A"
  },
  {
    "stop_id": "410",
    "stop_code": "SZNZ01",
    "stop_name": "Szeligowskiego I",
    "stop_lat": "52.4546730700",
    "stop_lon": "16.9192401900",
    "zone_id": "A"
  },
  {
    "stop_id": "411",
    "stop_code": "OSZY01",
    "stop_name": "Os. Zygmunta Starego",
    "stop_lat": "52.4601935935",
    "stop_lon": "16.9096308498",
    "zone_id": "A"
  },
  {
    "stop_id": "412",
    "stop_code": "OSZY02",
    "stop_name": "Os. Zygmunta Starego",
    "stop_lat": "52.4602850600",
    "stop_lon": "16.9083573400",
    "zone_id": "A"
  },
  {
    "stop_id": "414",
    "stop_code": "UAMK02",
    "stop_name": "UAM Kampus",
    "stop_lat": "52.4637778900",
    "stop_lon": "16.9305139300",
    "zone_id": "A"
  },
  {
    "stop_id": "415",
    "stop_code": "UAMK01",
    "stop_name": "UAM Kampus",
    "stop_lat": "52.4640625100",
    "stop_lon": "16.9305030700",
    "zone_id": "A"
  },
  {
    "stop_id": "416",
    "stop_code": "ORP02",
    "stop_name": "UAM Os. Różany Potok",
    "stop_lat": "52.4666531500",
    "stop_lon": "16.9417878300",
    "zone_id": "A"
  },
  {
    "stop_id": "417",
    "stop_code": "UAMG02",
    "stop_name": "UAM Wydział Geografii",
    "stop_lat": "52.4653034743",
    "stop_lon": "16.9416104897",
    "zone_id": "A"
  },
  {
    "stop_id": "418",
    "stop_code": "UAMG01",
    "stop_name": "UAM Wydział Geografii",
    "stop_lat": "52.4641879876",
    "stop_lon": "16.9410792174",
    "zone_id": "A"
  },
  {
    "stop_id": "419",
    "stop_code": "KRES03",
    "stop_name": "Kresowa",
    "stop_lat": "52.4681807500",
    "stop_lon": "16.9459521800",
    "zone_id": "A"
  },
  {
    "stop_id": "420",
    "stop_code": "KRES02",
    "stop_name": "Kresowa",
    "stop_lat": "52.4686397100",
    "stop_lon": "16.9474248100",
    "zone_id": "A"
  },
  {
    "stop_id": "421",
    "stop_code": "KRES01",
    "stop_name": "Kresowa",
    "stop_lat": "52.4679525200",
    "stop_lon": "16.9476334300",
    "zone_id": "A"
  },
  {
    "stop_id": "422",
    "stop_code": "WDNZ02",
    "stop_name": "Widłakowa",
    "stop_lat": "52.4725384800",
    "stop_lon": "16.9472832300",
    "zone_id": "A"
  },
  {
    "stop_id": "423",
    "stop_code": "WDNZ01",
    "stop_name": "Widłakowa",
    "stop_lat": "52.4722248500",
    "stop_lon": "16.9474484300",
    "zone_id": "A"
  },
  {
    "stop_id": "424",
    "stop_code": "RUMA01",
    "stop_name": "Rumiankowa",
    "stop_lat": "52.4750613500",
    "stop_lon": "16.9464343200",
    "zone_id": "A"
  },
  {
    "stop_id": "425",
    "stop_code": "RUMA02",
    "stop_name": "Rumiankowa",
    "stop_lat": "52.4758266200",
    "stop_lon": "16.9462312300",
    "zone_id": "A"
  },
  {
    "stop_id": "426",
    "stop_code": "DUNZ01",
    "stop_name": "Dziurawcowa",
    "stop_lat": "52.4789199600",
    "stop_lon": "16.9455025000",
    "zone_id": "A"
  },
  {
    "stop_id": "427",
    "stop_code": "DUNZ02",
    "stop_name": "Dziurawcowa",
    "stop_lat": "52.4791813300",
    "stop_lon": "16.9451608900",
    "zone_id": "A"
  },
  {
    "stop_id": "428",
    "stop_code": "UMTA02",
    "stop_name": "Umultowo",
    "stop_lat": "52.4813508200",
    "stop_lon": "16.9438533300",
    "zone_id": "A"
  },
  {
    "stop_id": "429",
    "stop_code": "UMTA01",
    "stop_name": "Umultowo",
    "stop_lat": "52.4819694900",
    "stop_lon": "16.9436187200",
    "zone_id": "A"
  },
  {
    "stop_id": "430",
    "stop_code": "LOPI02",
    "stop_name": "Łopianowa",
    "stop_lat": "52.4867720900",
    "stop_lon": "16.9424779000",
    "zone_id": "A"
  },
  {
    "stop_id": "431",
    "stop_code": "LOPI01",
    "stop_name": "Łopianowa",
    "stop_lat": "52.4868020500",
    "stop_lon": "16.9426238300",
    "zone_id": "A"
  },
  {
    "stop_id": "432",
    "stop_code": "LUGO02",
    "stop_name": "Os. Lubczykowa Góra",
    "stop_lat": "52.4892888700",
    "stop_lon": "16.9417493000",
    "zone_id": "A"
  },
  {
    "stop_id": "433",
    "stop_code": "LUGO01",
    "stop_name": "Os. Lubczykowa Góra",
    "stop_lat": "52.4899311000",
    "stop_lon": "16.9417111700",
    "zone_id": "A"
  },
  {
    "stop_id": "435",
    "stop_code": "RADO01",
    "stop_name": "Radojewo",
    "stop_lat": "52.4976583300",
    "stop_lon": "16.9461884000",
    "zone_id": "A"
  },
  {
    "stop_id": "438",
    "stop_code": "BIMLY01",
    "stop_name": "Biedrusko/Młyn",
    "stop_lat": "52.5148237600",
    "stop_lon": "16.9394120800",
    "zone_id": "B"
  },
  {
    "stop_id": "439",
    "stop_code": "BIMLY02",
    "stop_name": "Biedrusko/Młyn",
    "stop_lat": "52.5150853900",
    "stop_lon": "16.9394324400",
    "zone_id": "B"
  },
  {
    "stop_id": "440",
    "stop_code": "BIJES01",
    "stop_name": "Biedrusko/Jesionowa",
    "stop_lat": "52.5359212500",
    "stop_lon": "16.9434691900",
    "zone_id": "B"
  },
  {
    "stop_id": "441",
    "stop_code": "BIJES02",
    "stop_name": "Biedrusko/Jesionowa",
    "stop_lat": "52.5363894500",
    "stop_lon": "16.9437250300",
    "zone_id": "B"
  },
  {
    "stop_id": "442",
    "stop_code": "BIJDW01",
    "stop_name": "Biedrusko/Jednostka Wojskowa",
    "stop_lat": "52.5407511300",
    "stop_lon": "16.9446203400",
    "zone_id": "B"
  },
  {
    "stop_id": "443",
    "stop_code": "BIJDW02",
    "stop_name": "Biedrusko/Jednostka Wojskowa",
    "stop_lat": "52.5403913300",
    "stop_lon": "16.9447178600",
    "zone_id": "B"
  },
  {
    "stop_id": "444",
    "stop_code": "BIPRK02",
    "stop_name": "Biedrusko/Park",
    "stop_lat": "52.5451933400",
    "stop_lon": "16.9467181900",
    "zone_id": "B"
  },
  {
    "stop_id": "445",
    "stop_code": "MAPO02",
    "stop_name": "Maków Polnych",
    "stop_lat": "52.4636005600",
    "stop_lon": "16.9477802100",
    "zone_id": "A"
  },
  {
    "stop_id": "446",
    "stop_code": "MAPO01",
    "stop_name": "Maków Polnych",
    "stop_lat": "52.4635751200",
    "stop_lon": "16.9479684100",
    "zone_id": "A"
  },
  {
    "stop_id": "447",
    "stop_code": "BURY02",
    "stop_name": "Burysława",
    "stop_lat": "52.4583754800",
    "stop_lon": "16.9466870000",
    "zone_id": "A"
  },
  {
    "stop_id": "448",
    "stop_code": "BURY01",
    "stop_name": "Burysława",
    "stop_lat": "52.4587803100",
    "stop_lon": "16.9468127400",
    "zone_id": "A"
  },
  {
    "stop_id": "450",
    "stop_code": "BORA02",
    "stop_name": "Boranta",
    "stop_lat": "52.4566864500",
    "stop_lon": "16.9521145400",
    "zone_id": "A"
  },
  {
    "stop_id": "451",
    "stop_code": "BORA01",
    "stop_name": "Boranta",
    "stop_lat": "52.4565857324",
    "stop_lon": "16.9513652391",
    "zone_id": "A"
  },
  {
    "stop_id": "452",
    "stop_code": "BRON01",
    "stop_name": "Bronisza",
    "stop_lat": "52.4554530500",
    "stop_lon": "16.9477161500",
    "zone_id": "A"
  },
  {
    "stop_id": "453",
    "stop_code": "BRON02",
    "stop_name": "Bronisza",
    "stop_lat": "52.4535140500",
    "stop_lon": "16.9477138700",
    "zone_id": "A"
  },
  {
    "stop_id": "454",
    "stop_code": "RUBI01",
    "stop_name": "Rubież",
    "stop_lat": "52.4507910400",
    "stop_lon": "16.9479123400",
    "zone_id": "A"
  },
  {
    "stop_id": "455",
    "stop_code": "RUBI02",
    "stop_name": "Rubież",
    "stop_lat": "52.4489062700",
    "stop_lon": "16.9476013600",
    "zone_id": "A"
  },
  {
    "stop_id": "456",
    "stop_code": "OSLO01",
    "stop_name": "Os. Łokietka I",
    "stop_lat": "52.4480726000",
    "stop_lon": "16.9437394000",
    "zone_id": "A"
  },
  {
    "stop_id": "457",
    "stop_code": "OSLO02",
    "stop_name": "Os. Łokietka I",
    "stop_lat": "52.4481196400",
    "stop_lon": "16.9428784000",
    "zone_id": "A"
  },
  {
    "stop_id": "458",
    "stop_code": "KULY01",
    "stop_name": "Kupały",
    "stop_lat": "52.4507628200",
    "stop_lon": "16.9370899500",
    "zone_id": "A"
  },
  {
    "stop_id": "459",
    "stop_code": "KULY02",
    "stop_name": "Kupały",
    "stop_lat": "52.4511591700",
    "stop_lon": "16.9357661600",
    "zone_id": "A"
  },
  {
    "stop_id": "460",
    "stop_code": "OLOK02",
    "stop_name": "Os. Łokietka",
    "stop_lat": "52.4520237492",
    "stop_lon": "16.9346006470",
    "zone_id": "A"
  },
  {
    "stop_id": "461",
    "stop_code": "LUCK01",
    "stop_name": "Łużycka",
    "stop_lat": "52.4516680900",
    "stop_lon": "16.9333852300",
    "zone_id": "A"
  },
  {
    "stop_id": "462",
    "stop_code": "SARM01",
    "stop_name": "Sarmacka",
    "stop_lat": "52.4470172200",
    "stop_lon": "16.9277737600",
    "zone_id": "A"
  },
  {
    "stop_id": "463",
    "stop_code": "SARM02",
    "stop_name": "Sarmacka",
    "stop_lat": "52.4456930300",
    "stop_lon": "16.9279319400",
    "zone_id": "A"
  },
  {
    "stop_id": "464",
    "stop_code": "UMUL05",
    "stop_name": "Umultowska",
    "stop_lat": "52.4424558100",
    "stop_lon": "16.9295289900",
    "zone_id": "A"
  },
  {
    "stop_id": "465",
    "stop_code": "UMUL02",
    "stop_name": "Umultowska",
    "stop_lat": "52.4427139100",
    "stop_lon": "16.9290799200",
    "zone_id": "A"
  },
  {
    "stop_id": "466",
    "stop_code": "UMUL03",
    "stop_name": "Umultowska",
    "stop_lat": "52.4433248000",
    "stop_lon": "16.9282241200",
    "zone_id": "A"
  },
  {
    "stop_id": "467",
    "stop_code": "UMUL01",
    "stop_name": "Umultowska",
    "stop_lat": "52.4442552500",
    "stop_lon": "16.9288232700",
    "zone_id": "A"
  },
  {
    "stop_id": "468",
    "stop_code": "UMUL04",
    "stop_name": "Umultowska",
    "stop_lat": "52.4430685600",
    "stop_lon": "16.9303892100",
    "zone_id": "A"
  },
  {
    "stop_id": "469",
    "stop_code": "ESTO02",
    "stop_name": "Estońska",
    "stop_lat": "52.4425768100",
    "stop_lon": "16.9375356900",
    "zone_id": "A"
  },
  {
    "stop_id": "470",
    "stop_code": "ESTO01",
    "stop_name": "Estońska",
    "stop_lat": "52.4428183200",
    "stop_lon": "16.9362230400",
    "zone_id": "A"
  },
  {
    "stop_id": "471",
    "stop_code": "OWW02",
    "stop_name": "Os. Wichrowe Wzgórze",
    "stop_lat": "52.4412357000",
    "stop_lon": "16.9407797000",
    "zone_id": "A"
  },
  {
    "stop_id": "472",
    "stop_code": "OWW01",
    "stop_name": "Os. Wichrowe Wzgórze",
    "stop_lat": "52.4416835800",
    "stop_lon": "16.9410835100",
    "zone_id": "A"
  },
  {
    "stop_id": "474",
    "stop_code": "OKOS01",
    "stop_name": "Os. Kosmonautów",
    "stop_lat": "52.4384400500",
    "stop_lon": "16.9408119500",
    "zone_id": "A"
  },
  {
    "stop_id": "475",
    "stop_code": "OKOS02",
    "stop_name": "Os. Kosmonautów",
    "stop_lat": "52.4383750700",
    "stop_lon": "16.9404025000",
    "zone_id": "A"
  },
  {
    "stop_id": "479",
    "stop_code": "NARA02",
    "stop_name": "Naramowice",
    "stop_lat": "52.4444631000",
    "stop_lon": "16.9460185100",
    "zone_id": "A"
  },
  {
    "stop_id": "480",
    "stop_code": "NARA01",
    "stop_name": "Naramowice",
    "stop_lat": "52.4448718600",
    "stop_lon": "16.9465224400",
    "zone_id": "A"
  },
  {
    "stop_id": "481",
    "stop_code": "WIML02",
    "stop_name": "Wilczy Młyn",
    "stop_lat": "52.4372446300",
    "stop_lon": "16.9532701500",
    "zone_id": "A"
  },
  {
    "stop_id": "482",
    "stop_code": "WIML01",
    "stop_name": "Wilczy Młyn",
    "stop_lat": "52.4380629200",
    "stop_lon": "16.9530740700",
    "zone_id": "A"
  },
  {
    "stop_id": "483",
    "stop_code": "WIII01",
    "stop_name": "Wilczak II",
    "stop_lat": "52.4314715500",
    "stop_lon": "16.9517450500",
    "zone_id": "A"
  },
  {
    "stop_id": "484",
    "stop_code": "WIII02",
    "stop_name": "Wilczak II",
    "stop_lat": "52.4309139700",
    "stop_lon": "16.9539992500",
    "zone_id": "A"
  },
  {
    "stop_id": "485",
    "stop_code": "NASE04",
    "stop_name": "Naramowicka/Serbska",
    "stop_lat": "52.4313437400",
    "stop_lon": "16.9475532400",
    "zone_id": "A"
  },
  {
    "stop_id": "488",
    "stop_code": "NASE03",
    "stop_name": "Naramowicka/Serbska",
    "stop_lat": "52.4324866200",
    "stop_lon": "16.9455849500",
    "zone_id": "A"
  },
  {
    "stop_id": "489",
    "stop_code": "ROSO04",
    "stop_name": "Rondo Solidarności",
    "stop_lat": "52.4341511600",
    "stop_lon": "16.9403435800",
    "zone_id": "A"
  },
  {
    "stop_id": "490",
    "stop_code": "ROSO03",
    "stop_name": "Rondo Solidarności",
    "stop_lat": "52.4352952900",
    "stop_lon": "16.9372831400",
    "zone_id": "A"
  },
  {
    "stop_id": "491",
    "stop_code": "ROSO02",
    "stop_name": "Rondo Solidarności",
    "stop_lat": "52.4338715700",
    "stop_lon": "16.9373713900",
    "zone_id": "A"
  },
  {
    "stop_id": "492",
    "stop_code": "ROSO01",
    "stop_name": "Rondo Solidarności",
    "stop_lat": "52.4356201400",
    "stop_lon": "16.9392529900",
    "zone_id": "A"
  },
  {
    "stop_id": "493",
    "stop_code": "POLA02",
    "stop_name": "Połabska",
    "stop_lat": "52.4352475700",
    "stop_lon": "16.9312698300",
    "zone_id": "A"
  },
  {
    "stop_id": "494",
    "stop_code": "POLA03",
    "stop_name": "Połabska",
    "stop_lat": "52.4361636300",
    "stop_lon": "16.9308478800",
    "zone_id": "A"
  },
  {
    "stop_id": "495",
    "stop_code": "POLA01",
    "stop_name": "Połabska",
    "stop_lat": "52.4357412600",
    "stop_lon": "16.9293871500",
    "zone_id": "A"
  },
  {
    "stop_id": "496",
    "stop_code": "PSAM02",
    "stop_name": "Połabska SAM",
    "stop_lat": "52.4390781600",
    "stop_lon": "16.9303707900",
    "zone_id": "A"
  },
  {
    "stop_id": "497",
    "stop_code": "PSAM01",
    "stop_name": "Połabska SAM",
    "stop_lat": "52.4385179000",
    "stop_lon": "16.9310719500",
    "zone_id": "A"
  },
  {
    "stop_id": "498",
    "stop_code": "SUSZ02",
    "stop_name": "Suszki",
    "stop_lat": "52.4460798400",
    "stop_lon": "16.9140549500",
    "zone_id": "A"
  },
  {
    "stop_id": "499",
    "stop_code": "SUSZ01",
    "stop_name": "Suszki",
    "stop_lat": "52.4468964900",
    "stop_lon": "16.9140589000",
    "zone_id": "A"
  },
  {
    "stop_id": "500",
    "stop_code": "WLOA02",
    "stop_name": "Włościańska",
    "stop_lat": "52.4441993600",
    "stop_lon": "16.9133433500",
    "zone_id": "A"
  },
  {
    "stop_id": "501",
    "stop_code": "WLOA01",
    "stop_name": "Włościańska",
    "stop_lat": "52.4446345900",
    "stop_lon": "16.9139879900",
    "zone_id": "A"
  },
  {
    "stop_id": "502",
    "stop_code": "PIAT04",
    "stop_name": "Piątkowska",
    "stop_lat": "52.4412872773",
    "stop_lon": "16.9118297267",
    "zone_id": "A"
  },
  {
    "stop_id": "503",
    "stop_code": "PIAT02",
    "stop_name": "Piątkowska",
    "stop_lat": "52.4414305600",
    "stop_lon": "16.9122533500",
    "zone_id": "A"
  },
  {
    "stop_id": "504",
    "stop_code": "PIAT01",
    "stop_name": "Piątkowska",
    "stop_lat": "52.4416282200",
    "stop_lon": "16.9125521600",
    "zone_id": "A"
  },
  {
    "stop_id": "505",
    "stop_code": "PIAT03",
    "stop_name": "Piątkowska",
    "stop_lat": "52.4408075300",
    "stop_lon": "16.9124401700",
    "zone_id": "A"
  },
  {
    "stop_id": "506",
    "stop_code": "TROJ01",
    "stop_name": "Trójpole",
    "stop_lat": "52.4382450600",
    "stop_lon": "16.9117682600",
    "zone_id": "A"
  },
  {
    "stop_id": "507",
    "stop_code": "TROJ02",
    "stop_name": "Trójpole",
    "stop_lat": "52.4366036600",
    "stop_lon": "16.9118021400",
    "zone_id": "A"
  },
  {
    "stop_id": "508",
    "stop_code": "LUSZ01",
    "stop_name": "Lutycka Szpital",
    "stop_lat": "52.4412379000",
    "stop_lon": "16.9072570100",
    "zone_id": "A"
  },
  {
    "stop_id": "509",
    "stop_code": "LUSZ02",
    "stop_name": "Lutycka Szpital",
    "stop_lat": "52.4403618500",
    "stop_lon": "16.9081700400",
    "zone_id": "A"
  },
  {
    "stop_id": "510",
    "stop_code": "ROOB02",
    "stop_name": "Rondo Obornicka",
    "stop_lat": "52.4431113200",
    "stop_lon": "16.9077341600",
    "zone_id": "A"
  },
  {
    "stop_id": "511",
    "stop_code": "ROOB01",
    "stop_name": "Rondo Obornicka",
    "stop_lat": "52.4426762100",
    "stop_lon": "16.9067130500",
    "zone_id": "A"
  },
  {
    "stop_id": "512",
    "stop_code": "ST I02",
    "stop_name": "Strzeszyńska I",
    "stop_lat": "52.4437804400",
    "stop_lon": "16.9030445900",
    "zone_id": "A"
  },
  {
    "stop_id": "513",
    "stop_code": "ST I01",
    "stop_name": "Strzeszyńska I",
    "stop_lat": "52.4437428300",
    "stop_lon": "16.9033924900",
    "zone_id": "A"
  },
  {
    "stop_id": "514",
    "stop_code": "OBOR01",
    "stop_name": "Obornicka",
    "stop_lat": "52.4455276400",
    "stop_lon": "16.9085929200",
    "zone_id": "A"
  },
  {
    "stop_id": "515",
    "stop_code": "OBOR02",
    "stop_name": "Obornicka",
    "stop_lat": "52.4461147400",
    "stop_lon": "16.9080676400",
    "zone_id": "A"
  },
  {
    "stop_id": "516",
    "stop_code": "RZEP02",
    "stop_name": "Rzepeckiej",
    "stop_lat": "52.4549770000",
    "stop_lon": "16.8826823700",
    "zone_id": "A"
  },
  {
    "stop_id": "517",
    "stop_code": "RZEP01",
    "stop_name": "Rzepeckiej",
    "stop_lat": "52.4552832200",
    "stop_lon": "16.8824574500",
    "zone_id": "A"
  },
  {
    "stop_id": "518",
    "stop_code": "TULO02",
    "stop_name": "Tułodzieckiej",
    "stop_lat": "52.4519531800",
    "stop_lon": "16.8876748900",
    "zone_id": "A"
  },
  {
    "stop_id": "519",
    "stop_code": "TULO01",
    "stop_name": "Tułodzieckiej",
    "stop_lat": "52.4524763700",
    "stop_lon": "16.8871356900",
    "zone_id": "A"
  },
  {
    "stop_id": "522",
    "stop_code": "DRUS02",
    "stop_name": "Druskienicka",
    "stop_lat": "52.4446149700",
    "stop_lon": "16.8877859600",
    "zone_id": "A"
  },
  {
    "stop_id": "523",
    "stop_code": "DRUS01",
    "stop_name": "Druskienicka",
    "stop_lat": "52.4447947700",
    "stop_lon": "16.8880587000",
    "zone_id": "A"
  },
  {
    "stop_id": "524",
    "stop_code": "TRUS01",
    "stop_name": "Truskawiecka",
    "stop_lat": "52.4423864600",
    "stop_lon": "16.8867968800",
    "zone_id": "A"
  },
  {
    "stop_id": "525",
    "stop_code": "TRUS02",
    "stop_name": "Truskawiecka",
    "stop_lat": "52.4428486200",
    "stop_lon": "16.8867695400",
    "zone_id": "A"
  },
  {
    "stop_id": "526",
    "stop_code": "SZKA02",
    "stop_name": "Szczawnicka",
    "stop_lat": "52.4387345300",
    "stop_lon": "16.8899214300",
    "zone_id": "A"
  },
  {
    "stop_id": "527",
    "stop_code": "SZKA01",
    "stop_name": "Szczawnicka",
    "stop_lat": "52.4387452000",
    "stop_lon": "16.8902098900",
    "zone_id": "A"
  },
  {
    "stop_id": "528",
    "stop_code": "STII01",
    "stop_name": "Strzeszyńska II",
    "stop_lat": "52.4488588600",
    "stop_lon": "16.8952420300",
    "zone_id": "A"
  },
  {
    "stop_id": "529",
    "stop_code": "STII02",
    "stop_name": "Strzeszyńska II",
    "stop_lat": "52.4489689900",
    "stop_lon": "16.8945655300",
    "zone_id": "A"
  },
  {
    "stop_id": "530",
    "stop_code": "STNZ02",
    "stop_name": "Instytut Genetyki",
    "stop_lat": "52.4453455800",
    "stop_lon": "16.9005296100",
    "zone_id": "A"
  },
  {
    "stop_id": "531",
    "stop_code": "STNZ01",
    "stop_name": "Instytut Genetyki",
    "stop_lat": "52.4458947900",
    "stop_lon": "16.9000009700",
    "zone_id": "A"
  },
  {
    "stop_id": "532",
    "stop_code": "LUII01",
    "stop_name": "Lutycka II",
    "stop_lat": "52.4385654600",
    "stop_lon": "16.8943024500",
    "zone_id": "A"
  },
  {
    "stop_id": "533",
    "stop_code": "LUII02",
    "stop_name": "Lutycka II",
    "stop_lat": "52.4387976400",
    "stop_lon": "16.8957417100",
    "zone_id": "A"
  },
  {
    "stop_id": "534",
    "stop_code": "LU I01",
    "stop_name": "Lutycka I",
    "stop_lat": "52.4408641700",
    "stop_lon": "16.9009890200",
    "zone_id": "A"
  },
  {
    "stop_id": "535",
    "stop_code": "LU I02",
    "stop_name": "Lutycka I",
    "stop_lat": "52.4408859400",
    "stop_lon": "16.9015685900",
    "zone_id": "A"
  },
  {
    "stop_id": "537",
    "stop_code": "DOZD01",
    "stop_name": "Dojazd",
    "stop_lat": "52.4356658500",
    "stop_lon": "16.9032891000",
    "zone_id": "A"
  },
  {
    "stop_id": "538",
    "stop_code": "DOZD02",
    "stop_name": "Dojazd",
    "stop_lat": "52.4365693300",
    "stop_lon": "16.9011971400",
    "zone_id": "A"
  },
  {
    "stop_id": "539",
    "stop_code": "PDNZ02",
    "stop_name": "Podolańska",
    "stop_lat": "52.4357155201",
    "stop_lon": "16.8871403232",
    "zone_id": "A"
  },
  {
    "stop_id": "540",
    "stop_code": "PDNZ01",
    "stop_name": "Podolańska",
    "stop_lat": "52.4362556243",
    "stop_lon": "16.8871403232",
    "zone_id": "A"
  },
  {
    "stop_id": "541",
    "stop_code": "GOLE02",
    "stop_name": "Golęcin",
    "stop_lat": "52.4303575800",
    "stop_lon": "16.8914781200",
    "zone_id": "A"
  },
  {
    "stop_id": "542",
    "stop_code": "GOLE01",
    "stop_name": "Golęcin",
    "stop_lat": "52.4306289600",
    "stop_lon": "16.8910834100",
    "zone_id": "A"
  },
  {
    "stop_id": "543",
    "stop_code": "GOKA02",
    "stop_name": "Golęcińska",
    "stop_lat": "52.4314840500",
    "stop_lon": "16.8846367300",
    "zone_id": "A"
  },
  {
    "stop_id": "544",
    "stop_code": "GOKA01",
    "stop_name": "Golęcińska",
    "stop_lat": "52.4322404800",
    "stop_lon": "16.8843525500",
    "zone_id": "A"
  },
  {
    "stop_id": "545",
    "stop_code": "LINZ01",
    "stop_name": "Literacka I",
    "stop_lat": "52.4403413400",
    "stop_lon": "16.8717297600",
    "zone_id": "A"
  },
  {
    "stop_id": "546",
    "stop_code": "LINZ02",
    "stop_name": "Literacka I",
    "stop_lat": "52.4402178800",
    "stop_lon": "16.8716956700",
    "zone_id": "A"
  },
  {
    "stop_id": "547",
    "stop_code": "HEZJ02",
    "stop_name": "Hezjoda",
    "stop_lat": "52.4447774100",
    "stop_lon": "16.8739612700",
    "zone_id": "A"
  },
  {
    "stop_id": "548",
    "stop_code": "HEZJ01",
    "stop_name": "Hezjoda",
    "stop_lat": "52.4453060500",
    "stop_lon": "16.8744765100",
    "zone_id": "A"
  },
  {
    "stop_id": "550",
    "stop_code": "LITE02",
    "stop_name": "Literacka",
    "stop_lat": "52.4468104200",
    "stop_lon": "16.8741145500",
    "zone_id": "A"
  },
  {
    "stop_id": "551",
    "stop_code": "LITE01",
    "stop_name": "Literacka",
    "stop_lat": "52.4468834300",
    "stop_lon": "16.8742949400",
    "zone_id": "A"
  },
  {
    "stop_id": "552",
    "stop_code": "TOLT02",
    "stop_name": "Tołstoja",
    "stop_lat": "52.4499525500",
    "stop_lon": "16.8705847400",
    "zone_id": "A"
  },
  {
    "stop_id": "553",
    "stop_code": "TOLT01",
    "stop_name": "Tołstoja",
    "stop_lat": "52.4507937900",
    "stop_lon": "16.8698184400",
    "zone_id": "A"
  },
  {
    "stop_id": "554",
    "stop_code": "PUSA02",
    "stop_name": "Puszkina",
    "stop_lat": "52.4527483700",
    "stop_lon": "16.8649292500",
    "zone_id": "A"
  },
  {
    "stop_id": "555",
    "stop_code": "PUSA21",
    "stop_name": "Puszkina",
    "stop_lat": "52.4527436201",
    "stop_lon": "16.8650482508",
    "zone_id": "A"
  },
  {
    "stop_id": "556",
    "stop_code": "KODZ01",
    "stop_name": "Koszalińska Działki",
    "stop_lat": "52.4408092500",
    "stop_lon": "16.8675299200",
    "zone_id": "A"
  },
  {
    "stop_id": "557",
    "stop_code": "KODZ02",
    "stop_name": "Koszalińska Działki",
    "stop_lat": "52.4406722100",
    "stop_lon": "16.8677999100",
    "zone_id": "A"
  },
  {
    "stop_id": "560",
    "stop_code": "SZYN02",
    "stop_name": "Strzeszyn",
    "stop_lat": "52.4519398500",
    "stop_lon": "16.8481863400",
    "zone_id": "A"
  },
  {
    "stop_id": "561",
    "stop_code": "SZYN04",
    "stop_name": "Strzeszyn",
    "stop_lat": "52.4518608100",
    "stop_lon": "16.8488594500",
    "zone_id": "A"
  },
  {
    "stop_id": "562",
    "stop_code": "SZYN01",
    "stop_name": "Strzeszyn",
    "stop_lat": "52.4521424700",
    "stop_lon": "16.8480803100",
    "zone_id": "A"
  },
  {
    "stop_id": "563",
    "stop_code": "SZYN21",
    "stop_name": "Strzeszyn",
    "stop_lat": "52.4518353900",
    "stop_lon": "16.8489658700",
    "zone_id": "A"
  },
  {
    "stop_id": "564",
    "stop_code": "KRAJ02",
    "stop_name": "Krajenecka",
    "stop_lat": "52.4547254800",
    "stop_lon": "16.8432035500",
    "zone_id": "A"
  },
  {
    "stop_id": "565",
    "stop_code": "KRAJ01",
    "stop_name": "Krajenecka",
    "stop_lat": "52.4549867000",
    "stop_lon": "16.8429271500",
    "zone_id": "A"
  },
  {
    "stop_id": "566",
    "stop_code": "INTP01",
    "stop_name": "Instytut Technologiczno-Przyrodniczy",
    "stop_lat": "52.4557426400",
    "stop_lon": "16.8550097000",
    "zone_id": "A"
  },
  {
    "stop_id": "567",
    "stop_code": "INTP02",
    "stop_name": "Instytut Technologiczno-Przyrodniczy",
    "stop_lat": "52.4560162000",
    "stop_lon": "16.8556986500",
    "zone_id": "A"
  },
  {
    "stop_id": "568",
    "stop_code": "STEK01",
    "stop_name": "Strzeszynek",
    "stop_lat": "52.4640133000",
    "stop_lon": "16.8285525700",
    "zone_id": "A"
  },
  {
    "stop_id": "569",
    "stop_code": "STEK02",
    "stop_name": "Strzeszynek",
    "stop_lat": "52.4641401500",
    "stop_lon": "16.8280997100",
    "zone_id": "A"
  },
  {
    "stop_id": "572",
    "stop_code": "PSPK01",
    "stop_name": "Psarskie Przejazd Kolejowy",
    "stop_lat": "52.4714238200",
    "stop_lon": "16.8019574200",
    "zone_id": "A"
  },
  {
    "stop_id": "573",
    "stop_code": "CHKA02",
    "stop_name": "Chojnicka",
    "stop_lat": "52.4688093000",
    "stop_lon": "16.8012110300",
    "zone_id": "A"
  },
  {
    "stop_id": "574",
    "stop_code": "CHKA01",
    "stop_name": "Chojnicka",
    "stop_lat": "52.4686961400",
    "stop_lon": "16.8013452100",
    "zone_id": "A"
  },
  {
    "stop_id": "575",
    "stop_code": "NJEZ02",
    "stop_name": "Nad Jeziorem",
    "stop_lat": "52.4728173700",
    "stop_lon": "16.7949431100",
    "zone_id": "A"
  },
  {
    "stop_id": "576",
    "stop_code": "NJEZ01",
    "stop_name": "Nad Jeziorem",
    "stop_lat": "52.4732931600",
    "stop_lon": "16.7943800500",
    "zone_id": "A"
  },
  {
    "stop_id": "577",
    "stop_code": "KIDW02",
    "stop_name": "Kiekrz Dworzec",
    "stop_lat": "52.4750720300",
    "stop_lon": "16.7897244800",
    "zone_id": "A"
  },
  {
    "stop_id": "578",
    "stop_code": "KIDW01",
    "stop_name": "Kiekrz Dworzec",
    "stop_lat": "52.4753158800",
    "stop_lon": "16.7893756500",
    "zone_id": "A"
  },
  {
    "stop_id": "579",
    "stop_code": "KIKO02",
    "stop_name": "Kiekrz Kościół",
    "stop_lat": "52.4773571300",
    "stop_lon": "16.7842541400",
    "zone_id": "A"
  },
  {
    "stop_id": "580",
    "stop_code": "KIKO01",
    "stop_name": "Kiekrz Kościół",
    "stop_lat": "52.4775653300",
    "stop_lon": "16.7838055800",
    "zone_id": "A"
  },
  {
    "stop_id": "581",
    "stop_code": "WIMO02",
    "stop_name": "Wilków Morskich",
    "stop_lat": "52.4775368900",
    "stop_lon": "16.7800561100",
    "zone_id": "A"
  },
  {
    "stop_id": "582",
    "stop_code": "ADMI01",
    "stop_name": "Admiralska",
    "stop_lat": "52.4751780000",
    "stop_lon": "16.7768486100",
    "zone_id": "A"
  },
  {
    "stop_id": "583",
    "stop_code": "ADMI02",
    "stop_name": "Admiralska",
    "stop_lat": "52.4757478100",
    "stop_lon": "16.7774765600",
    "zone_id": "A"
  },
  {
    "stop_id": "584",
    "stop_code": "KIEK02",
    "stop_name": "Kiekrz",
    "stop_lat": "52.4737051100",
    "stop_lon": "16.7744947100",
    "zone_id": "A"
  },
  {
    "stop_id": "585",
    "stop_code": "UZSZ01",
    "stop_name": "Uzdrowiskowa Szpital",
    "stop_lat": "52.4641255700",
    "stop_lon": "16.8004320300",
    "zone_id": "A"
  },
  {
    "stop_id": "586",
    "stop_code": "UZSZ02",
    "stop_name": "Uzdrowiskowa Szpital",
    "stop_lat": "52.4646400000",
    "stop_lon": "16.8003498300",
    "zone_id": "A"
  },
  {
    "stop_id": "587",
    "stop_code": "STOB02",
    "stop_name": "Stobnicka",
    "stop_lat": "52.4534762600",
    "stop_lon": "16.8012951900",
    "zone_id": "A"
  },
  {
    "stop_id": "588",
    "stop_code": "STOB01",
    "stop_name": "Stobnicka",
    "stop_lat": "52.4539974300",
    "stop_lon": "16.8010815400",
    "zone_id": "A"
  },
  {
    "stop_id": "589",
    "stop_code": "SLUP01",
    "stop_name": "Słupska",
    "stop_lat": "52.4483028600",
    "stop_lon": "16.8043734200",
    "zone_id": "A"
  },
  {
    "stop_id": "590",
    "stop_code": "SLUP02",
    "stop_name": "Słupska",
    "stop_lat": "52.4486133400",
    "stop_lon": "16.8041124700",
    "zone_id": "A"
  },
  {
    "stop_id": "591",
    "stop_code": "KRZY01",
    "stop_name": "Krzyżowniki",
    "stop_lat": "52.4418011800",
    "stop_lon": "16.8075931300",
    "zone_id": "A"
  },
  {
    "stop_id": "592",
    "stop_code": "KRZY02",
    "stop_name": "Krzyżowniki",
    "stop_lat": "52.4418361500",
    "stop_lon": "16.8074558100",
    "zone_id": "A"
  },
  {
    "stop_id": "593",
    "stop_code": "KRZY04",
    "stop_name": "Krzyżowniki",
    "stop_lat": "52.4416695900",
    "stop_lon": "16.8073361700",
    "zone_id": "A"
  },
  {
    "stop_id": "594",
    "stop_code": "MIED01",
    "stop_name": "Międzyzdrojska",
    "stop_lat": "52.4364244100",
    "stop_lon": "16.8089974300",
    "zone_id": "A"
  },
  {
    "stop_id": "595",
    "stop_code": "MIED02",
    "stop_name": "Międzyzdrojska",
    "stop_lat": "52.4352223500",
    "stop_lon": "16.8088744400",
    "zone_id": "A"
  },
  {
    "stop_id": "596",
    "stop_code": "MIED03",
    "stop_name": "Międzyzdrojska",
    "stop_lat": "52.4350769500",
    "stop_lon": "16.8096441800",
    "zone_id": "A"
  },
  {
    "stop_id": "597",
    "stop_code": "CZKA01",
    "stop_name": "Człopska",
    "stop_lat": "52.4351845000",
    "stop_lon": "16.8156774100",
    "zone_id": "A"
  },
  {
    "stop_id": "598",
    "stop_code": "CZKA02",
    "stop_name": "Człopska",
    "stop_lat": "52.4350452900",
    "stop_lon": "16.8138629800",
    "zone_id": "A"
  },
  {
    "stop_id": "599",
    "stop_code": "BRAN01",
    "stop_name": "Braniewska",
    "stop_lat": "52.4352589000",
    "stop_lon": "16.8216492500",
    "zone_id": "A"
  },
  {
    "stop_id": "600",
    "stop_code": "BRAN02",
    "stop_name": "Braniewska",
    "stop_lat": "52.4351872600",
    "stop_lon": "16.8231796800",
    "zone_id": "A"
  },
  {
    "stop_id": "601",
    "stop_code": "LUPO02",
    "stop_name": "Łupowska",
    "stop_lat": "52.4352823800",
    "stop_lon": "16.8301995000",
    "zone_id": "A"
  },
  {
    "stop_id": "602",
    "stop_code": "LUPO01",
    "stop_name": "Łupowska",
    "stop_lat": "52.4353853900",
    "stop_lon": "16.8300010700",
    "zone_id": "A"
  },
  {
    "stop_id": "603",
    "stop_code": "SMOC02",
    "stop_name": "Smochowice",
    "stop_lat": "52.4309740800",
    "stop_lon": "16.8323331200",
    "zone_id": "A"
  },
  {
    "stop_id": "604",
    "stop_code": "SMOC01",
    "stop_name": "Smochowice",
    "stop_lat": "52.4321195300",
    "stop_lon": "16.8323893000",
    "zone_id": "A"
  },
  {
    "stop_id": "605",
    "stop_code": "KOLO02",
    "stop_name": "Kołobrzeska",
    "stop_lat": "52.4310730000",
    "stop_lon": "16.8385071200",
    "zone_id": "A"
  },
  {
    "stop_id": "606",
    "stop_code": "KOLO01",
    "stop_name": "Kołobrzeska",
    "stop_lat": "52.4315211400",
    "stop_lon": "16.8384039700",
    "zone_id": "A"
  },
  {
    "stop_id": "607",
    "stop_code": "LEKA02",
    "stop_name": "Leśnowolska",
    "stop_lat": "52.4316133300",
    "stop_lon": "16.8223032900",
    "zone_id": "A"
  },
  {
    "stop_id": "608",
    "stop_code": "LEKA01",
    "stop_name": "Leśnowolska",
    "stop_lat": "52.4319771100",
    "stop_lon": "16.8222369900",
    "zone_id": "A"
  },
  {
    "stop_id": "609",
    "stop_code": "WICH02",
    "stop_name": "Wichrowa",
    "stop_lat": "52.4315909200",
    "stop_lon": "16.8092375000",
    "zone_id": "A"
  },
  {
    "stop_id": "610",
    "stop_code": "WICH01",
    "stop_name": "Wichrowa",
    "stop_lat": "52.4322530000",
    "stop_lon": "16.8100220200",
    "zone_id": "A"
  },
  {
    "stop_id": "611",
    "stop_code": "TATR02",
    "stop_name": "Tatrzańska",
    "stop_lat": "52.4290282800",
    "stop_lon": "16.8485993900",
    "zone_id": "A"
  },
  {
    "stop_id": "612",
    "stop_code": "TATR01",
    "stop_name": "Tatrzańska",
    "stop_lat": "52.4295369100",
    "stop_lon": "16.8477457600",
    "zone_id": "A"
  },
  {
    "stop_id": "613",
    "stop_code": "PILO02",
    "stop_name": "Pilotów",
    "stop_lat": "52.4270388700",
    "stop_lon": "16.8561400300",
    "zone_id": "A"
  },
  {
    "stop_id": "614",
    "stop_code": "PILO01",
    "stop_name": "Pilotów",
    "stop_lat": "52.4277183200",
    "stop_lon": "16.8544813100",
    "zone_id": "A"
  },
  {
    "stop_id": "615",
    "stop_code": "PLOT02",
    "stop_name": "Przelot",
    "stop_lat": "52.4260131500",
    "stop_lon": "16.8598158400",
    "zone_id": "A"
  },
  {
    "stop_id": "616",
    "stop_code": "PLOT01",
    "stop_name": "Przelot",
    "stop_lat": "52.4262619600",
    "stop_lon": "16.8599110000",
    "zone_id": "A"
  },
  {
    "stop_id": "617",
    "stop_code": "BUZA02",
    "stop_name": "Bużańska",
    "stop_lat": "52.4234695100",
    "stop_lon": "16.8663402700",
    "zone_id": "A"
  },
  {
    "stop_id": "618",
    "stop_code": "BUZA01",
    "stop_name": "Bużańska",
    "stop_lat": "52.4236316000",
    "stop_lon": "16.8668036700",
    "zone_id": "A"
  },
  {
    "stop_id": "619",
    "stop_code": "PONZ01",
    "stop_name": "Polska",
    "stop_lat": "52.4186600000",
    "stop_lon": "16.8729303300",
    "zone_id": "A"
  },
  {
    "stop_id": "620",
    "stop_code": "OGDY01",
    "stop_name": "Ogrody",
    "stop_lat": "52.4169067600",
    "stop_lon": "16.8818094600",
    "zone_id": "A"
  },
  {
    "stop_id": "621",
    "stop_code": "OGDY02",
    "stop_name": "Ogrody",
    "stop_lat": "52.4169288400",
    "stop_lon": "16.8822457700",
    "zone_id": "A"
  },
  {
    "stop_id": "622",
    "stop_code": "OGDY06",
    "stop_name": "Ogrody",
    "stop_lat": "52.4166818200",
    "stop_lon": "16.8851557900",
    "zone_id": "A"
  },
  {
    "stop_id": "623",
    "stop_code": "OGDY04",
    "stop_name": "Ogrody",
    "stop_lat": "52.4178847900",
    "stop_lon": "16.8810942800",
    "zone_id": "A"
  },
  {
    "stop_id": "624",
    "stop_code": "SZPI01",
    "stop_name": "Szpitalna",
    "stop_lat": "52.4118975000",
    "stop_lon": "16.8772228500",
    "zone_id": "A"
  },
  {
    "stop_id": "625",
    "stop_code": "SZPI02",
    "stop_name": "Szpitalna",
    "stop_lat": "52.4121991900",
    "stop_lon": "16.8769750800",
    "zone_id": "A"
  },
  {
    "stop_id": "626",
    "stop_code": "SZPI04",
    "stop_name": "Szpitalna",
    "stop_lat": "52.4110533900",
    "stop_lon": "16.8777072800",
    "zone_id": "A"
  },
  {
    "stop_id": "627",
    "stop_code": "SZPI03",
    "stop_name": "Szpitalna",
    "stop_lat": "52.4108285900",
    "stop_lon": "16.8803452600",
    "zone_id": "A"
  },
  {
    "stop_id": "628",
    "stop_code": "SWOB01",
    "stop_name": "Swoboda",
    "stop_lat": "52.4117184500",
    "stop_lon": "16.8741687600",
    "zone_id": "A"
  },
  {
    "stop_id": "629",
    "stop_code": "SWOB02",
    "stop_name": "Swoboda",
    "stop_lat": "52.4117809300",
    "stop_lon": "16.8724554100",
    "zone_id": "A"
  },
  {
    "stop_id": "630",
    "stop_code": "BUKI01",
    "stop_name": "Bukowska I",
    "stop_lat": "52.4123649800",
    "stop_lon": "16.8684411400",
    "zone_id": "A"
  },
  {
    "stop_id": "631",
    "stop_code": "BUKI02",
    "stop_name": "Bukowska I",
    "stop_lat": "52.4117817500",
    "stop_lon": "16.8691817400",
    "zone_id": "A"
  },
  {
    "stop_id": "632",
    "stop_code": "JASN02",
    "stop_name": "Jasna",
    "stop_lat": "52.4118094600",
    "stop_lon": "16.8650660500",
    "zone_id": "A"
  },
  {
    "stop_id": "633",
    "stop_code": "JASN01",
    "stop_name": "Jasna",
    "stop_lat": "52.4120368300",
    "stop_lon": "16.8635587600",
    "zone_id": "A"
  },
  {
    "stop_id": "634",
    "stop_code": "JASN03",
    "stop_name": "Jasna",
    "stop_lat": "52.4106575600",
    "stop_lon": "16.8640171900",
    "zone_id": "A"
  },
  {
    "stop_id": "635",
    "stop_code": "ZGOR02",
    "stop_name": "Zgorzelecka",
    "stop_lat": "52.4117833700",
    "stop_lon": "16.8583160600",
    "zone_id": "A"
  },
  {
    "stop_id": "636",
    "stop_code": "ZGOR01",
    "stop_name": "Zgorzelecka",
    "stop_lat": "52.4120717800",
    "stop_lon": "16.8580344800",
    "zone_id": "A"
  },
  {
    "stop_id": "637",
    "stop_code": "LESK03",
    "stop_name": "Leśnych Skrzatów",
    "stop_lat": "52.4115931000",
    "stop_lon": "16.8503329200",
    "zone_id": "A"
  },
  {
    "stop_id": "638",
    "stop_code": "LESK02",
    "stop_name": "Leśnych Skrzatów",
    "stop_lat": "52.4120367500",
    "stop_lon": "16.8525645500",
    "zone_id": "A"
  },
  {
    "stop_id": "639",
    "stop_code": "LESK01",
    "stop_name": "Leśnych Skrzatów",
    "stop_lat": "52.4124386400",
    "stop_lon": "16.8500791800",
    "zone_id": "A"
  },
  {
    "stop_id": "640",
    "stop_code": "FOED02",
    "stop_name": "Folwark Edwardowo",
    "stop_lat": "52.4123307300",
    "stop_lon": "16.8463949300",
    "zone_id": "A"
  },
  {
    "stop_id": "641",
    "stop_code": "FOED01",
    "stop_name": "Folwark Edwardowo",
    "stop_lat": "52.4125853000",
    "stop_lon": "16.8465094400",
    "zone_id": "A"
  },
  {
    "stop_id": "642",
    "stop_code": "KOPC02",
    "stop_name": "Kopciuszka",
    "stop_lat": "52.4126148200",
    "stop_lon": "16.8391197900",
    "zone_id": "A"
  },